{"AL":{"name":"Ahvenanmaan lääni","alt_names":["Åland"],"geo":{"latitude":60.177002,"longitude":19.915002,"min_latitude":59.9686438,"min_longitude":19.4613939,"max_latitude":60.6547739,"max_longitude":21.1111317}},"ES":{"name":"Etelä-Suomen lääni","alt_names":["Etelä-Suomen lääni"],"geo":{"latitude":null,"longitude":null,"min_latitude":null,"min_longitude":null,"max_latitude":null,"max_longitude":null}},"IS":{"name":"Itä-Suomen lääni","alt_names":["Östra Nyland","Itä-Uusimaa","Uusima de lʿEst"],"geo":{"latitude":null,"longitude":null,"min_latitude":null,"min_longitude":null,"max_latitude":null,"max_longitude":null}},"LL":{"name":"Lapin lääni","alt_names":["Lappland","Lappi","Lappland","Laponie"],"geo":{"latitude":67.9222304,"longitude":26.5046438,"min_latitude":65.497126,"min_longitude":20.5489762,"max_latitude":70.092444,"max_longitude":30.016886}},"LS":{"name":"Länsi-Suomen lääni","alt_names":["Länsi-Suomen lääni"],"geo":{"latitude":null,"longitude":null,"min_latitude":null,"min_longitude":null,"max_latitude":null,"max_longitude":null}},"OL":{"name":"Oulun lääni","alt_names":["Oulun lääni"],"geo":{"latitude":65.6234319,"longitude":25.1482406,"min_latitude":null,"min_longitude":null,"max_latitude":null,"max_longitude":null}}}
