{"type":"FeatureCollection","features":[{"type":"Feature","properties":{"scalerank":1,"featurecla":"mountain","name":"Mt. Everest","elevation":8848,"comment":"Worlds highest point","name_alt":null,"lat_y":27.980475165,"long_x":86.880625847,"nation1":null,"nation2":null,"note":null,"region":"Asia","subregion":null,"min_zoom":4},"bbox":[86.880596,27.980481,86.880596,27.980481],"geometry":{"type":"Point","coordinates":[86.880596,27.980481]}},{"type":"Feature","properties":{"scalerank":2,"featurecla":"mountain","name":"Mt. Kilimanjaro","elevation":5895,"comment":"Highest point in Africa","name_alt":null,"lat_y":-3.075738214,"long_x":37.353282097,"nation1":null,"nation2":null,"note":null,"region":"Africa","subregion":null,"min_zoom":5},"bbox":[37.353252,-3.075715,37.353252,-3.075715],"geometry":{"type":"Point","coordinates":[37.353252,-3.075715]}},{"type":"Feature","properties":{"scalerank":2,"featurecla":"mountain","name":"Vinson Massif","elevation":4892,"comment":null,"name_alt":null,"lat_y":-78.529351495,"long_x":-85.633717414,"nation1":null,"nation2":null,"note":null,"region":"Antarctica","subregion":null,"min_zoom":5},"bbox":[-85.633729,-78.529362,-85.633729,-78.529362],"geometry":{"type":"Point","coordinates":[-85.633729,-78.529362]}},{"type":"Feature","properties":{"scalerank":2,"featurecla":"depression","name":"Turpan Depression","elevation":-154,"comment":null,"name_alt":null,"lat_y":42.768683173,"long_x":89.340098504,"nation1":null,"nation2":null,"note":null,"region":"Asia","subregion":null,"min_zoom":5},"bbox":[89.34012,42.768685,89.34012,42.768685],"geometry":{"type":"Point","coordinates":[89.34012,42.768685]}},{"type":"Feature","properties":{"scalerank":2,"featurecla":"depression","name":null,"elevation":-416,"comment":"Worlds lowest point","name_alt":null,"lat_y":31.515387274,"long_x":35.474742058,"nation1":null,"nation2":null,"note":null,"region":"Asia","subregion":null,"min_zoom":5},"bbox":[35.47472,31.51539,35.47472,31.51539],"geometry":{"type":"Point","coordinates":[35.47472,31.51539]}},{"type":"Feature","properties":{"scalerank":2,"featurecla":"pass","name":"Khyber Pass","elevation":1070,"comment":null,"name_alt":null,"lat_y":34.098395087,"long_x":71.097788933,"nation1":null,"nation2":null,"note":null,"region":"Asia","subregion":null,"min_zoom":5},"bbox":[71.09783,34.098391,71.09783,34.098391],"geometry":{"type":"Point","coordinates":[71.09783,34.098391]}},{"type":"Feature","properties":{"scalerank":2,"featurecla":"mountain","name":"K2","elevation":8611,"comment":null,"name_alt":null,"lat_y":35.882391669,"long_x":76.513194207,"nation1":null,"nation2":null,"note":null,"region":"Asia","subregion":null,"min_zoom":5},"bbox":[76.513209,35.882406,76.513209,35.882406],"geometry":{"type":"Point","coordinates":[76.513209,35.882406]}},{"type":"Feature","properties":{"scalerank":2,"featurecla":"mountain","name":"Muztag Feng","elevation":6973,"comment":null,"name_alt":"Ulugh Muztag","lat_y":36.416510321,"long_x":87.413218621,"nation1":null,"nation2":null,"note":null,"region":"Asia","subregion":null,"min_zoom":5},"bbox":[87.413199,36.416504,87.413199,36.416504],"geometry":{"type":"Point","coordinates":[87.413199,36.416504]}},{"type":"Feature","properties":{"scalerank":2,"featurecla":"mountain","name":"Kailash","elevation":6638,"comment":null,"name_alt":null,"lat_y":31.06659577,"long_x":81.312510613,"nation1":null,"nation2":null,"note":null,"region":"Asia","subregion":null,"min_zoom":5},"bbox":[81.312536,31.066599,81.312536,31.066599],"geometry":{"type":"Point","coordinates":[81.312536,31.066599]}},{"type":"Feature","properties":{"scalerank":2,"featurecla":"depression","name":null,"elevation":-28,"comment":"Lowest point in Europe","name_alt":null,"lat_y":44.257574774,"long_x":49.009532097,"nation1":null,"nation2":null,"note":null,"region":"Europe","subregion":null,"min_zoom":5},"bbox":[49.009534,44.257559,49.009534,44.257559],"geometry":{"type":"Point","coordinates":[49.009534,44.257559]}},{"type":"Feature","properties":{"scalerank":2,"featurecla":"mountain","name":"Gora Elbrus","elevation":5642,"comment":"Highest point in Europe","name_alt":"Mount Elbrus","lat_y":43.355169989,"long_x":42.439219597,"nation1":null,"nation2":null,"note":null,"region":"Europe","subregion":null,"min_zoom":5},"bbox":[42.439198,43.355171,42.439198,43.355171],"geometry":{"type":"Point","coordinates":[42.439198,43.355171]}},{"type":"Feature","properties":{"scalerank":2,"featurecla":"depression","name":"Death Valley","elevation":-86,"comment":"Lowest point in N. America","name_alt":null,"lat_y":36.24225495,"long_x":-116.828236457,"nation1":null,"nation2":null,"note":null,"region":"North America","subregion":null,"min_zoom":5},"bbox":[-116.828226,36.242255,-116.828226,36.242255],"geometry":{"type":"Point","coordinates":[-116.828226,36.242255]}},{"type":"Feature","properties":{"scalerank":2,"featurecla":"mountain","name":"Denali","elevation":6194,"comment":"Highest point in N. America","name_alt":"Mt. McKinley","lat_y":63.069403387,"long_x":-151.007313606,"nation1":null,"nation2":null,"note":null,"region":"North America","subregion":null,"min_zoom":5},"bbox":[-151.007296,63.069411,-151.007296,63.069411],"geometry":{"type":"Point","coordinates":[-151.007296,63.069411]}},{"type":"Feature","properties":{"scalerank":2,"featurecla":"mountain","name":"Mt. Whitney","elevation":4421,"comment":null,"name_alt":null,"lat_y":36.582709052,"long_x":-118.292225715,"nation1":null,"nation2":null,"note":null,"region":"North America","subregion":null,"min_zoom":5},"bbox":[-118.292218,36.582715,-118.292218,36.582715],"geometry":{"type":"Point","coordinates":[-118.292218,36.582715]}},{"type":"Feature","properties":{"scalerank":2,"featurecla":"depression","name":null,"elevation":-16,"comment":"Lowest point in Australia","name_alt":null,"lat_y":-28.448663019,"long_x":137.284434441,"nation1":null,"nation2":null,"note":null,"region":"Oceania","subregion":"Australia","min_zoom":5},"bbox":[137.284438,-28.448653,137.284438,-28.448653],"geometry":{"type":"Point","coordinates":[137.284438,-28.448653]}},{"type":"Feature","properties":{"scalerank":2,"featurecla":"mountain","name":"Mt. Kosciuszko","elevation":2228,"comment":"Highest point in Australia","name_alt":null,"lat_y":-36.455865167,"long_x":148.263194207,"nation1":null,"nation2":null,"note":null,"region":"Oceania","subregion":"Australia","min_zoom":5},"bbox":[148.263192,-36.45588,148.263192,-36.45588],"geometry":{"type":"Point","coordinates":[148.263192,-36.45588]}},{"type":"Feature","properties":{"scalerank":2,"featurecla":"mountain","name":"Cerro Aconcagua","elevation":6959,"comment":"Highest point in S. America","name_alt":null,"lat_y":-32.655694269,"long_x":-70.015797493,"nation1":null,"nation2":null,"note":null,"region":"South America","subregion":null,"min_zoom":5},"bbox":[-70.015801,-32.655679,-70.015801,-32.655679],"geometry":{"type":"Point","coordinates":[-70.015801,-32.655679]}},{"type":"Feature","properties":{"scalerank":2,"featurecla":"depression","name":null,"elevation":-40,"comment":"Lowest point in S. America","name_alt":null,"lat_y":-42.623955988,"long_x":-63.968800422,"nation1":null,"nation2":null,"note":null,"region":"South America","subregion":null,"min_zoom":5},"bbox":[-63.968778,-42.623997,-63.968778,-42.623997],"geometry":{"type":"Point","coordinates":[-63.968778,-42.623997]}},{"type":"Feature","properties":{"scalerank":2,"featurecla":"mountain","name":"Cero Raya","elevation":2070,"comment":null,"name_alt":null,"lat_y":5.451666571,"long_x":-66.375599739,"nation1":null,"nation2":null,"note":null,"region":"South America","subregion":null,"min_zoom":5},"bbox":[-66.375591,5.451674,-66.375591,5.451674],"geometry":{"type":"Point","coordinates":[-66.375591,5.451674]}},{"type":"Feature","properties":{"scalerank":3,"featurecla":"depression","name":null,"elevation":-156,"comment":"Lowest point in Africa","name_alt":null,"lat_y":11.67182038,"long_x":42.413340691,"nation1":null,"nation2":null,"note":null,"region":"Africa","subregion":null,"min_zoom":5.1},"bbox":[42.413347,11.671816,42.413347,11.671816],"geometry":{"type":"Point","coordinates":[42.413347,11.671816]}},{"type":"Feature","properties":{"scalerank":3,"featurecla":"mountain","name":"Mt. Takahe","elevation":3460,"comment":null,"name_alt":null,"lat_y":-76.272881769,"long_x":-112.099842903,"nation1":null,"nation2":null,"note":null,"region":"Antarctica","subregion":null,"min_zoom":5.1},"bbox":[-112.099866,-76.272847,-112.099866,-76.272847],"geometry":{"type":"Point","coordinates":[-112.099866,-76.272847]}},{"type":"Feature","properties":{"scalerank":3,"featurecla":"mountain","name":"Mt. Sidley","elevation":4285,"comment":null,"name_alt":null,"lat_y":-77.031548761,"long_x":-126.066517707,"nation1":null,"nation2":null,"note":null,"region":"Antarctica","subregion":null,"min_zoom":5.1},"bbox":[-126.066506,-77.031562,-126.066506,-77.031562],"geometry":{"type":"Point","coordinates":[-126.066506,-77.031562]}},{"type":"Feature","properties":{"scalerank":3,"featurecla":"mountain","name":"Mt. Fridtjof Nansen","elevation":4069,"comment":null,"name_alt":null,"lat_y":-85.3475888,"long_x":-167.554676887,"nation1":null,"nation2":null,"note":null,"region":"Antarctica","subregion":null,"min_zoom":5.1},"bbox":[-167.554675,-85.347622,-167.554675,-85.347622],"geometry":{"type":"Point","coordinates":[-167.554675,-85.347622]}},{"type":"Feature","properties":{"scalerank":3,"featurecla":"mountain","name":"Gongga Shan","elevation":7556,"comment":null,"name_alt":null,"lat_y":29.595770575,"long_x":101.879161004,"nation1":null,"nation2":null,"note":null,"region":"Asia","subregion":null,"min_zoom":5.1},"bbox":[101.87912,29.59578,101.87912,29.59578],"geometry":{"type":"Point","coordinates":[101.87912,29.59578]}},{"type":"Feature","properties":{"scalerank":3,"featurecla":"mountain","name":"Dhaulagiri","elevation":8172,"comment":null,"name_alt":null,"lat_y":28.696478583,"long_x":83.4951278,"nation1":null,"nation2":null,"note":null,"region":"Asia","subregion":null,"min_zoom":5.1},"bbox":[83.495136,28.696462,83.495136,28.696462],"geometry":{"type":"Point","coordinates":[83.495136,28.696462]}},{"type":"Feature","properties":{"scalerank":3,"featurecla":"mountain","name":"Belukha","elevation":4506,"comment":null,"name_alt":null,"lat_y":49.807074286,"long_x":86.606333855,"nation1":null,"nation2":null,"note":null,"region":"Asia","subregion":null,"min_zoom":5.1},"bbox":[86.606337,49.807079,86.606337,49.807079],"geometry":{"type":"Point","coordinates":[86.606337,49.807079]}},{"type":"Feature","properties":{"scalerank":3,"featurecla":"mountain","name":"Nganglong Kangri","elevation":6720,"comment":null,"name_alt":null,"lat_y":32.81659577,"long_x":80.999888543,"nation1":null,"nation2":null,"note":null,"region":"Asia","subregion":null,"min_zoom":5.1},"bbox":[80.999905,32.816604,80.999905,32.816604],"geometry":{"type":"Point","coordinates":[80.999905,32.816604]}},{"type":"Feature","properties":{"scalerank":3,"featurecla":"mountain","name":"Geladandong","elevation":6621,"comment":null,"name_alt":"Geladaindong","lat_y":33.416632391,"long_x":91.083384636,"nation1":null,"nation2":null,"note":null,"region":"Asia","subregion":null,"min_zoom":5.1},"bbox":[91.08342,33.416621,91.08342,33.416621],"geometry":{"type":"Point","coordinates":[91.08342,33.416621]}},{"type":"Feature","properties":{"scalerank":3,"featurecla":"mountain","name":"Mt. Blanc","elevation":4807,"comment":null,"name_alt":null,"lat_y":45.833685614,"long_x":6.865000847,"nation1":"France","nation2":"Italy","note":null,"region":"Europe","subregion":null,"min_zoom":5.1},"bbox":[6.865043,45.833679,6.865043,45.833679],"geometry":{"type":"Point","coordinates":[6.865043,45.833679]}},{"type":"Feature","properties":{"scalerank":3,"featurecla":"mountain","name":"Mt. Washington","elevation":1917,"comment":null,"name_alt":null,"lat_y":44.267279364,"long_x":-71.307423469,"nation1":null,"nation2":null,"note":null,"region":"North America","subregion":null,"min_zoom":5.1},"bbox":[-71.307443,44.267294,-71.307443,44.267294],"geometry":{"type":"Point","coordinates":[-71.307443,44.267294]}},{"type":"Feature","properties":{"scalerank":3,"featurecla":"mountain","name":"Mt. Katahdin","elevation":1606,"comment":null,"name_alt":null,"lat_y":45.903387762,"long_x":-68.923634407,"nation1":null,"nation2":null,"note":null,"region":"North America","subregion":null,"min_zoom":5.1},"bbox":[-68.923613,45.903395,-68.923613,45.903395],"geometry":{"type":"Point","coordinates":[-68.923613,45.903395]}},{"type":"Feature","properties":{"scalerank":3,"featurecla":"mountain","name":"Mt. Shasta","elevation":4322,"comment":null,"name_alt":null,"lat_y":41.409308173,"long_x":-122.194996711,"nation1":null,"nation2":null,"note":null,"region":"North America","subregion":null,"min_zoom":5.1},"bbox":[-122.195014,41.409307,-122.195014,41.409307],"geometry":{"type":"Point","coordinates":[-122.195014,41.409307]}},{"type":"Feature","properties":{"scalerank":3,"featurecla":"mountain","name":"Grand Teton","elevation":4199,"comment":null,"name_alt":null,"lat_y":43.763373114,"long_x":-110.801808235,"nation1":null,"nation2":null,"note":null,"region":"North America","subregion":null,"min_zoom":5.1},"bbox":[-110.801802,43.763368,-110.801802,43.763368],"geometry":{"type":"Point","coordinates":[-110.801802,43.763368]}},{"type":"Feature","properties":{"scalerank":3,"featurecla":"mountain","name":"Mt. Hood","elevation":3426,"comment":null,"name_alt":null,"lat_y":45.384466864,"long_x":-121.696583625,"nation1":null,"nation2":null,"note":null,"region":"North America","subregion":null,"min_zoom":5.1},"bbox":[-121.696582,45.384484,-121.696582,45.384484],"geometry":{"type":"Point","coordinates":[-121.696582,45.384484]}},{"type":"Feature","properties":{"scalerank":4,"featurecla":"mountain","name":"Mt. Kenya","elevation":5199,"comment":null,"name_alt":null,"lat_y":-0.150079034,"long_x":37.299937371,"nation1":null,"nation2":null,"note":null,"region":"Africa","subregion":null,"min_zoom":6},"bbox":[37.299935,-0.150072,37.299935,-0.150072],"geometry":{"type":"Point","coordinates":[37.299935,-0.150072]}},{"type":"Feature","properties":{"scalerank":4,"featurecla":"mountain","name":"Mt. Stanley","elevation":4979,"comment":null,"name_alt":null,"lat_y":0.380072333,"long_x":29.872080925,"nation1":null,"nation2":null,"note":null,"region":"Africa","subregion":null,"min_zoom":6},"bbox":[29.872085,0.380108,29.872085,0.380108],"geometry":{"type":"Point","coordinates":[29.872085,0.380108]}},{"type":"Feature","properties":{"scalerank":4,"featurecla":"mountain","name":"Klyuchevskaya Sopka","elevation":4750,"comment":null,"name_alt":null,"lat_y":56.055975653,"long_x":160.643931511,"nation1":null,"nation2":null,"note":null,"region":"Asia","subregion":null,"min_zoom":6},"bbox":[160.643937,56.055979,160.643937,56.055979],"geometry":{"type":"Point","coordinates":[160.643937,56.055979]}},{"type":"Feature","properties":{"scalerank":4,"featurecla":"mountain","name":"Bogda Feng","elevation":5445,"comment":null,"name_alt":"Bogda Peak","lat_y":43.795111395,"long_x":88.317393425,"nation1":null,"nation2":null,"note":null,"region":"Asia","subregion":null,"min_zoom":6},"bbox":[88.317405,43.795116,88.317405,43.795116],"geometry":{"type":"Point","coordinates":[88.317405,43.795116]}},{"type":"Feature","properties":{"scalerank":4,"featurecla":"mountain","name":"Pik Imeni Ismail Samani","elevation":7495,"comment":null,"name_alt":null,"lat_y":38.932379462,"long_x":72.021739129,"nation1":null,"nation2":null,"note":null,"region":"Asia","subregion":null,"min_zoom":6},"bbox":[72.021746,38.932374,72.021746,38.932374],"geometry":{"type":"Point","coordinates":[72.021746,38.932374]}},{"type":"Feature","properties":{"scalerank":4,"featurecla":"mountain","name":"Gora Manas","elevation":4482,"comment":null,"name_alt":null,"lat_y":42.289984442,"long_x":71.054209832,"nation1":null,"nation2":null,"note":null,"region":"Asia","subregion":null,"min_zoom":6},"bbox":[71.054207,42.290005,71.054207,42.290005],"geometry":{"type":"Point","coordinates":[71.054207,42.290005]}},{"type":"Feature","properties":{"scalerank":4,"featurecla":"mountain","name":"Shah Fuladi","elevation":5048,"comment":null,"name_alt":null,"lat_y":34.642096259,"long_x":67.62769616,"nation1":null,"nation2":null,"note":null,"region":"Asia","subregion":null,"min_zoom":6},"bbox":[67.627708,34.642102,67.627708,34.642102],"geometry":{"type":"Point","coordinates":[67.627708,34.642102]}},{"type":"Feature","properties":{"scalerank":4,"featurecla":"mountain","name":"Kuh-e Jang Qal'eh","elevation":4171,"comment":null,"name_alt":null,"lat_y":33.117010809,"long_x":64.188365105,"nation1":null,"nation2":null,"note":null,"region":"Asia","subregion":null,"min_zoom":6},"bbox":[64.188365,33.116997,64.188365,33.116997],"geometry":{"type":"Point","coordinates":[64.188365,33.116997]}},{"type":"Feature","properties":{"scalerank":4,"featurecla":"mountain","name":"Gora Munku-Sardyk","elevation":3491,"comment":null,"name_alt":null,"lat_y":51.716376044,"long_x":100.616587761,"nation1":null,"nation2":null,"note":null,"region":"Asia","subregion":null,"min_zoom":6},"bbox":[100.61656,51.716389,100.61656,51.716389],"geometry":{"type":"Point","coordinates":[100.61656,51.716389]}},{"type":"Feature","properties":{"scalerank":4,"featurecla":"mountain","name":"Wutai Shan","elevation":3058,"comment":null,"name_alt":null,"lat_y":39.087591864,"long_x":113.570201043,"nation1":null,"nation2":null,"note":null,"region":"Asia","subregion":null,"min_zoom":6},"bbox":[113.570219,39.087599,113.570219,39.087599],"geometry":{"type":"Point","coordinates":[113.570219,39.087599]}},{"type":"Feature","properties":{"scalerank":4,"featurecla":"mountain","name":"Kangtö","elevation":7060,"comment":null,"name_alt":null,"lat_y":27.874701239,"long_x":92.531993035,"nation1":null,"nation2":null,"note":null,"region":"Asia","subregion":null,"min_zoom":6},"bbox":[92.532024,27.874695,92.532024,27.874695],"geometry":{"type":"Point","coordinates":[92.532024,27.874695]}},{"type":"Feature","properties":{"scalerank":4,"featurecla":"mountain","name":"Mt. Chamberlin","elevation":2749,"comment":null,"name_alt":null,"lat_y":69.281073309,"long_x":-144.913624641,"nation1":null,"nation2":null,"note":null,"region":"North America","subregion":null,"min_zoom":6},"bbox":[-144.91362,69.28107,-144.91362,69.28107],"geometry":{"type":"Point","coordinates":[-144.91362,69.28107]}},{"type":"Feature","properties":{"scalerank":4,"featurecla":"mountain","name":"Gunung Kinabalu","elevation":4101,"comment":null,"name_alt":null,"lat_y":6.083380438,"long_x":116.549937371,"nation1":null,"nation2":null,"note":null,"region":"Asia","subregion":"Malay Archipelago","min_zoom":6},"bbox":[116.549987,6.083399,116.549987,6.083399],"geometry":{"type":"Point","coordinates":[116.549987,6.083399]}},{"type":"Feature","properties":{"scalerank":4,"featurecla":"mountain","name":"Puncak Jaya","elevation":4884,"comment":null,"name_alt":"Carstensz Pyramid","lat_y":-4.077691339,"long_x":137.166270379,"nation1":null,"nation2":null,"note":null,"region":"Oceania","subregion":"Melanesia","min_zoom":6},"bbox":[137.166252,-4.077668,137.166252,-4.077668],"geometry":{"type":"Point","coordinates":[137.166252,-4.077668]}},{"type":"Feature","properties":{"scalerank":4,"featurecla":"mountain","name":"Chimborazo","elevation":6267,"comment":null,"name_alt":null,"lat_y":-1.469292902,"long_x":-78.81749427,"nation1":null,"nation2":null,"note":null,"region":"South America","subregion":null,"min_zoom":6},"bbox":[-78.817489,-1.469261,-78.817489,-1.469261],"geometry":{"type":"Point","coordinates":[-78.817489,-1.469261]}},{"type":"Feature","properties":{"scalerank":4,"featurecla":"mountain","name":"Pico Bolívar","elevation":4980,"comment":null,"name_alt":null,"lat_y":8.55286286,"long_x":-71.052723762,"nation1":null,"nation2":null,"note":null,"region":"South America","subregion":null,"min_zoom":6},"bbox":[-71.052734,8.552859,-71.052734,8.552859],"geometry":{"type":"Point","coordinates":[-71.052734,8.552859]}},{"type":"Feature","properties":{"scalerank":4,"featurecla":"mountain","name":"Cerro Champaquí","elevation":2770,"comment":null,"name_alt":null,"lat_y":-31.991631769,"long_x":-64.916005012,"nation1":null,"nation2":null,"note":null,"region":"South America","subregion":null,"min_zoom":6},"bbox":[-64.916001,-31.991641,-64.916001,-31.991641],"geometry":{"type":"Point","coordinates":[-64.916001,-31.991641]}},{"type":"Feature","properties":{"scalerank":5,"featurecla":"mountain","name":"Jebel Toubkal","elevation":4165,"comment":null,"name_alt":null,"lat_y":31.062079169,"long_x":-7.916127082,"nation1":null,"nation2":null,"note":null,"region":"Africa","subregion":null,"min_zoom":6},"bbox":[-7.916134,31.062075,-7.916134,31.062075],"geometry":{"type":"Point","coordinates":[-7.916134,31.062075]}},{"type":"Feature","properties":{"scalerank":5,"featurecla":"mountain","name":"Thabana Ntlenyana","elevation":3482,"comment":null,"name_alt":null,"lat_y":-29.466607355,"long_x":29.266734246,"nation1":null,"nation2":null,"note":null,"region":"Africa","subregion":null,"min_zoom":6},"bbox":[29.266696,-29.466602,29.266696,-29.466602],"geometry":{"type":"Point","coordinates":[29.266696,-29.466602]}},{"type":"Feature","properties":{"scalerank":5,"featurecla":"mountain","name":"Mt. Batu","elevation":4307,"comment":null,"name_alt":null,"lat_y":6.666693427,"long_x":39.41675866,"nation1":null,"nation2":null,"note":null,"region":"Africa","subregion":null,"min_zoom":6},"bbox":[39.416777,6.666693,39.416777,6.666693],"geometry":{"type":"Point","coordinates":[39.416777,6.666693]}},{"type":"Feature","properties":{"scalerank":5,"featurecla":"mountain","name":"Argun","elevation":3418,"comment":null,"name_alt":null,"lat_y":6.109808661,"long_x":36.747325066,"nation1":null,"nation2":null,"note":null,"region":"Africa","subregion":null,"min_zoom":6},"bbox":[36.747297,6.109815,36.747297,6.109815],"geometry":{"type":"Point","coordinates":[36.747297,6.109815]}},{"type":"Feature","properties":{"scalerank":5,"featurecla":"mountain","name":"Kinyeti","elevation":3187,"comment":null,"name_alt":null,"lat_y":3.95508454,"long_x":32.90125573,"nation1":null,"nation2":null,"note":null,"region":"Africa","subregion":null,"min_zoom":6},"bbox":[32.901292,3.955086,32.901292,3.955086],"geometry":{"type":"Point","coordinates":[32.901292,3.955086]}},{"type":"Feature","properties":{"scalerank":5,"featurecla":"mountain","name":"Muleta","elevation":3405,"comment":null,"name_alt":null,"lat_y":9.268866278,"long_x":41.733531121,"nation1":null,"nation2":null,"note":null,"region":"Africa","subregion":null,"min_zoom":6},"bbox":[41.733557,9.26888,41.733557,9.26888],"geometry":{"type":"Point","coordinates":[41.733557,9.26888]}},{"type":"Feature","properties":{"scalerank":5,"featurecla":"mountain","name":"Ras Dejen","elevation":4533,"comment":null,"name_alt":null,"lat_y":13.236761786,"long_x":38.372325066,"nation1":null,"nation2":null,"note":null,"region":"Africa","subregion":null,"min_zoom":6},"bbox":[38.372331,13.236747,38.372331,13.236747],"geometry":{"type":"Point","coordinates":[38.372331,13.236747]}},{"type":"Feature","properties":{"scalerank":5,"featurecla":"mountain","name":"Mt. Elgon","elevation":4321,"comment":null,"name_alt":null,"lat_y":1.123114325,"long_x":34.5341903,"nation1":null,"nation2":null,"note":null,"region":"Africa","subregion":null,"min_zoom":6},"bbox":[34.534162,1.123151,34.534162,1.123151],"geometry":{"type":"Point","coordinates":[34.534162,1.123151]}},{"type":"Feature","properties":{"scalerank":5,"featurecla":"depression","name":"Qattara Depression","elevation":-133,"comment":null,"name_alt":null,"lat_y":30.043585516,"long_x":27.496226433,"nation1":null,"nation2":null,"note":null,"region":"Africa","subregion":null,"min_zoom":6},"bbox":[27.496253,30.043602,27.496253,30.043602],"geometry":{"type":"Point","coordinates":[27.496253,30.043602]}},{"type":"Feature","properties":{"scalerank":5,"featurecla":"depression","name":"Er Richat Depression","elevation":485,"comment":null,"name_alt":null,"lat_y":21.205511786,"long_x":-11.373036262,"nation1":null,"nation2":null,"note":null,"region":"Africa","subregion":null,"min_zoom":6},"bbox":[-11.373047,21.20552,-11.373047,21.20552],"geometry":{"type":"Point","coordinates":[-11.373047,21.20552]}},{"type":"Feature","properties":{"scalerank":5,"featurecla":"mountain","name":"Talo","elevation":4413,"comment":null,"name_alt":null,"lat_y":10.656683661,"long_x":37.882212761,"nation1":null,"nation2":null,"note":null,"region":"Africa","subregion":null,"min_zoom":6},"bbox":[37.88222,10.656695,37.88222,10.656695],"geometry":{"type":"Point","coordinates":[37.88222,10.656695]}},{"type":"Feature","properties":{"scalerank":5,"featurecla":"mountain","name":"Lesatima","elevation":4001,"comment":null,"name_alt":null,"lat_y":-0.324761652,"long_x":36.623667839,"nation1":null,"nation2":null,"note":null,"region":"Africa","subregion":null,"min_zoom":6},"bbox":[36.623618,-0.324806,36.623618,-0.324806],"geometry":{"type":"Point","coordinates":[36.623618,-0.324806]}},{"type":"Feature","properties":{"scalerank":5,"featurecla":"mountain","name":"Otgon Tenger","elevation":4000,"comment":null,"name_alt":null,"lat_y":47.599982001,"long_x":97.550181511,"nation1":null,"nation2":null,"note":null,"region":"Asia","subregion":null,"min_zoom":6},"bbox":[97.550193,47.599962,97.550193,47.599962],"geometry":{"type":"Point","coordinates":[97.550193,47.599962]}},{"type":"Feature","properties":{"scalerank":5,"featurecla":"mountain","name":"Gora Korolenko","elevation":1647,"comment":null,"name_alt":null,"lat_y":58.288275458,"long_x":115.007090691,"nation1":null,"nation2":null,"note":null,"region":"Asia","subregion":null,"min_zoom":6},"bbox":[115.007109,58.28826,115.007109,58.28826],"geometry":{"type":"Point","coordinates":[115.007109,58.28826]}},{"type":"Feature","properties":{"scalerank":5,"featurecla":"mountain","name":"Magen Gangri","elevation":6282,"comment":null,"name_alt":"Mt. Amnyemaqen","lat_y":34.800116278,"long_x":99.466563347,"nation1":null,"nation2":null,"note":null,"region":"Asia","subregion":null,"min_zoom":6},"bbox":[99.466612,34.800114,99.466612,34.800114],"geometry":{"type":"Point","coordinates":[99.466612,34.800114]}},{"type":"Feature","properties":{"scalerank":5,"featurecla":"mountain","name":"Taibai Shan","elevation":3767,"comment":null,"name_alt":null,"lat_y":33.950079657,"long_x":107.750132683,"nation1":null,"nation2":null,"note":null,"region":"Asia","subregion":null,"min_zoom":6},"bbox":[107.750116,33.950073,107.750116,33.950073],"geometry":{"type":"Point","coordinates":[107.750116,33.950073]}},{"type":"Feature","properties":{"scalerank":5,"featurecla":"mountain","name":"Nanda Devi","elevation":7817,"comment":null,"name_alt":null,"lat_y":30.542486884,"long_x":79.970957879,"nation1":null,"nation2":null,"note":null,"region":"Asia","subregion":null,"min_zoom":6},"bbox":[79.97097,30.542478,79.97097,30.542478],"geometry":{"type":"Point","coordinates":[79.97097,30.542478]}},{"type":"Feature","properties":{"scalerank":5,"featurecla":"mountain","name":"Daba Shan","elevation":2708,"comment":null,"name_alt":null,"lat_y":32.249884345,"long_x":109.000010613,"nation1":null,"nation2":null,"note":null,"region":"Asia","subregion":null,"min_zoom":6},"bbox":[108.999993,32.24987,108.999993,32.24987],"geometry":{"type":"Point","coordinates":[108.999993,32.24987]}},{"type":"Feature","properties":{"scalerank":5,"featurecla":"mountain","name":"Mazong Shan","elevation":2584,"comment":null,"name_alt":null,"lat_y":41.523810126,"long_x":97.119395379,"nation1":null,"nation2":null,"note":null,"region":"Asia","subregion":null,"min_zoom":6},"bbox":[97.119376,41.523817,97.119376,41.523817],"geometry":{"type":"Point","coordinates":[97.119376,41.523817]}},{"type":"Feature","properties":{"scalerank":5,"featurecla":"mountain","name":"Gora Burun-Shibertuy","elevation":2519,"comment":null,"name_alt":null,"lat_y":49.700079657,"long_x":109.98316491,"nation1":null,"nation2":null,"note":null,"region":"Asia","subregion":null,"min_zoom":6},"bbox":[109.983124,49.700082,109.983124,49.700082],"geometry":{"type":"Point","coordinates":[109.983124,49.700082]}},{"type":"Feature","properties":{"scalerank":5,"featurecla":"mountain","name":"Skalistyy Golets","elevation":2467,"comment":null,"name_alt":null,"lat_y":56.401495673,"long_x":119.098033074,"nation1":null,"nation2":null,"note":null,"region":"Asia","subregion":null,"min_zoom":6},"bbox":[119.098049,56.401489,119.098049,56.401489],"geometry":{"type":"Point","coordinates":[119.098049,56.401489]}},{"type":"Feature","properties":{"scalerank":5,"featurecla":"mountain","name":"Inyaptuk Golets","elevation":2641,"comment":null,"name_alt":null,"lat_y":56.364081122,"long_x":111.631480339,"nation1":null,"nation2":null,"note":null,"region":"Asia","subregion":null,"min_zoom":6},"bbox":[111.631504,56.364086,111.631504,56.364086],"geometry":{"type":"Point","coordinates":[111.631504,56.364086]}},{"type":"Feature","properties":{"scalerank":5,"featurecla":"mountain","name":"Grandiozny Pk.","elevation":2891,"comment":null,"name_alt":null,"lat_y":53.925665595,"long_x":96.038584832,"nation1":null,"nation2":null,"note":null,"region":"Asia","subregion":null,"min_zoom":6},"bbox":[96.038578,53.925687,96.038578,53.925687],"geometry":{"type":"Point","coordinates":[96.038578,53.925687]}},{"type":"Feature","properties":{"scalerank":5,"featurecla":"mountain","name":"Wheeler Pk.","elevation":3982,"comment":null,"name_alt":null,"lat_y":38.986273505,"long_x":-114.313404914,"nation1":null,"nation2":null,"note":null,"region":"North America","subregion":null,"min_zoom":6},"bbox":[-114.313406,38.986256,-114.313406,38.986256],"geometry":{"type":"Point","coordinates":[-114.313406,38.986256]}},{"type":"Feature","properties":{"scalerank":5,"featurecla":"mountain","name":"Borah Pk.","elevation":3859,"comment":null,"name_alt":null,"lat_y":44.140082098,"long_x":-113.78221595,"nation1":null,"nation2":null,"note":null,"region":"North America","subregion":null,"min_zoom":6},"bbox":[-113.782216,44.1401,-113.782216,44.1401],"geometry":{"type":"Point","coordinates":[-113.782216,44.1401]}},{"type":"Feature","properties":{"scalerank":5,"featurecla":"mountain","name":"Sacajawea Pk.","elevation":2999,"comment":null,"name_alt":null,"lat_y":45.253668524,"long_x":-117.296681282,"nation1":null,"nation2":null,"note":null,"region":"North America","subregion":null,"min_zoom":6},"bbox":[-117.296687,45.253656,-117.296687,45.253656],"geometry":{"type":"Point","coordinates":[-117.296687,45.253656]}},{"type":"Feature","properties":{"scalerank":5,"featurecla":"mountain","name":"Trapper Pk.","elevation":3096,"comment":null,"name_alt":null,"lat_y":45.906378485,"long_x":-114.313832161,"nation1":null,"nation2":null,"note":null,"region":"North America","subregion":null,"min_zoom":6},"bbox":[-114.313809,45.906384,-114.313809,45.906384],"geometry":{"type":"Point","coordinates":[-114.313809,45.906384]}},{"type":"Feature","properties":{"scalerank":5,"featurecla":"mountain","name":"Kings Pk.","elevation":4123,"comment":null,"name_alt":null,"lat_y":40.782110907,"long_x":-110.372547981,"nation1":null,"nation2":null,"note":null,"region":"North America","subregion":null,"min_zoom":6},"bbox":[-110.372561,40.782106,-110.372561,40.782106],"geometry":{"type":"Point","coordinates":[-110.372561,40.782106]}},{"type":"Feature","properties":{"scalerank":5,"featurecla":"mountain","name":"Mt. Baker","elevation":3286,"comment":null,"name_alt":null,"lat_y":48.795904852,"long_x":-121.823231575,"nation1":null,"nation2":null,"note":null,"region":"North America","subregion":null,"min_zoom":6},"bbox":[-121.82325,48.795916,-121.82325,48.795916],"geometry":{"type":"Point","coordinates":[-121.82325,48.795916]}},{"type":"Feature","properties":{"scalerank":5,"featurecla":"mountain","name":"Mt. Elbert","elevation":4402,"comment":null,"name_alt":null,"lat_y":39.12506745,"long_x":-106.44640052,"nation1":null,"nation2":null,"note":null,"region":"North America","subregion":null,"min_zoom":6},"bbox":[-106.446419,39.125082,-106.446419,39.125082],"geometry":{"type":"Point","coordinates":[-106.446419,39.125082]}},{"type":"Feature","properties":{"scalerank":5,"featurecla":"mountain","name":"Uncompahgre Pk.","elevation":4361,"comment":null,"name_alt":null,"lat_y":38.073004462,"long_x":-107.477040168,"nation1":null,"nation2":null,"note":null,"region":"North America","subregion":null,"min_zoom":6},"bbox":[-107.47705,38.073003,-107.47705,38.073003],"geometry":{"type":"Point","coordinates":[-107.47705,38.073003]}},{"type":"Feature","properties":{"scalerank":5,"featurecla":"mountain","name":"Mt. Mitchell","elevation":2037,"comment":null,"name_alt":null,"lat_y":35.764715887,"long_x":-82.268055793,"nation1":null,"nation2":null,"note":null,"region":"North America","subregion":null,"min_zoom":6},"bbox":[-82.268061,35.764705,-82.268061,35.764705],"geometry":{"type":"Point","coordinates":[-82.268061,35.764705]}},{"type":"Feature","properties":{"scalerank":5,"featurecla":"mountain","name":"Clingmans Dome","elevation":2025,"comment":null,"name_alt":null,"lat_y":35.586920477,"long_x":-83.497425911,"nation1":null,"nation2":null,"note":null,"region":"North America","subregion":null,"min_zoom":6},"bbox":[-83.497419,35.586942,-83.497419,35.586942],"geometry":{"type":"Point","coordinates":[-83.497419,35.586942]}},{"type":"Feature","properties":{"scalerank":5,"featurecla":"mountain","name":"Spruce Knob","elevation":1482,"comment":null,"name_alt":null,"lat_y":38.714972235,"long_x":-79.535206672,"nation1":null,"nation2":null,"note":null,"region":"North America","subregion":null,"min_zoom":6},"bbox":[-79.535207,38.714987,-79.535207,38.714987],"geometry":{"type":"Point","coordinates":[-79.535207,38.714987]}},{"type":"Feature","properties":{"scalerank":5,"featurecla":"mountain","name":"Mt. Rogers","elevation":1746,"comment":null,"name_alt":null,"lat_y":36.677008368,"long_x":-81.562001106,"nation1":null,"nation2":null,"note":null,"region":"North America","subregion":null,"min_zoom":6},"bbox":[-81.562016,36.677029,-81.562016,36.677029],"geometry":{"type":"Point","coordinates":[-81.562016,36.677029]}}],"bbox":[-167.554674647806,-85.347622325301,160.6439370495,69.2810703681624]}
