{"type":"FeatureCollection","features":[{"type":"Feature","properties":{"scalerank":2,"featurecla":"waterfall","name":"Niagara Falls","comment":null,"name_alt":null,"lat_y":43.087653,"long_x":-79.044073,"region":"North America","subregion":null,"min_zoom":5},"bbox":[-79.044118,43.087714,-79.044118,43.087714],"geometry":{"type":"Point","coordinates":[-79.044118,43.087714]}},{"type":"Feature","properties":{"scalerank":2,"featurecla":"waterfall","name":"Salto Angel","comment":null,"name_alt":"Angel Falls","lat_y":5.686836,"long_x":-62.061848,"region":"South America","subregion":null,"min_zoom":5},"bbox":[-62.061818,5.686896,-62.061818,5.686896],"geometry":{"type":"Point","coordinates":[-62.061818,5.686896]}},{"type":"Feature","properties":{"scalerank":2,"featurecla":"waterfall","name":"Iguazu Falls","comment":null,"name_alt":null,"lat_y":-25.568265,"long_x":-54.582842,"region":"South America","subregion":null,"min_zoom":5},"bbox":[-54.582997,-25.568292,-54.582997,-25.568292],"geometry":{"type":"Point","coordinates":[-54.582997,-25.568292]}},{"type":"Feature","properties":{"scalerank":3,"featurecla":"cape","name":"Gees Gwardafuy","comment":null,"name_alt":null,"lat_y":11.812855,"long_x":51.235173,"region":"Africa","subregion":null,"min_zoom":5.1},"bbox":[51.258314,11.822029,51.258314,11.822029],"geometry":{"type":"Point","coordinates":[51.258314,11.822029]}},{"type":"Feature","properties":{"scalerank":3,"featurecla":"waterfall","name":"Victoria Falls","comment":null,"name_alt":null,"lat_y":-17.77079,"long_x":25.460133,"region":"Africa","subregion":null,"min_zoom":5.1},"bbox":[25.852794,-17.928033,25.852794,-17.928033],"geometry":{"type":"Point","coordinates":[25.852794,-17.928033]}},{"type":"Feature","properties":{"scalerank":3,"featurecla":"island","name":"Wright I.","comment":null,"name_alt":null,"lat_y":-50.959168,"long_x":-72.995002,"region":"Antarctica","subregion":null,"min_zoom":5.1},"bbox":[-116.892629,-74.066705,-116.892629,-74.066705],"geometry":{"type":"Point","coordinates":[-116.892629,-74.066705]}},{"type":"Feature","properties":{"scalerank":3,"featurecla":"island","name":"Grant I.","comment":null,"name_alt":null,"lat_y":-50.959168,"long_x":-72.995002,"region":"Antarctica","subregion":null,"min_zoom":5.1},"bbox":[-131.485402,-74.482721,-131.485402,-74.482721],"geometry":{"type":"Point","coordinates":[-131.485402,-74.482721]}},{"type":"Feature","properties":{"scalerank":3,"featurecla":"island","name":"Newman I.","comment":null,"name_alt":null,"lat_y":-50.959168,"long_x":-72.995002,"region":"Antarctica","subregion":null,"min_zoom":5.1},"bbox":[-145.686818,-75.591851,-145.686818,-75.591851],"geometry":{"type":"Point","coordinates":[-145.686818,-75.591851]}},{"type":"Feature","properties":{"scalerank":3,"featurecla":"island","name":"Dean I.","comment":null,"name_alt":null,"lat_y":-50.959168,"long_x":-72.995002,"region":"Antarctica","subregion":null,"min_zoom":5.1},"bbox":[-127.634389,-74.500665,-127.634389,-74.500665],"geometry":{"type":"Point","coordinates":[-127.634389,-74.500665]}},{"type":"Feature","properties":{"scalerank":3,"featurecla":"cape","name":"Cape Canaveral","comment":null,"name_alt":null,"lat_y":28.483713,"long_x":-80.534941,"region":"North America","subregion":null,"min_zoom":5.1},"bbox":[-80.536256,28.473057,-80.536256,28.473057],"geometry":{"type":"Point","coordinates":[-80.536256,28.473057]}},{"type":"Feature","properties":{"scalerank":3,"featurecla":"cape","name":"Cape Mendocino","comment":null,"name_alt":null,"lat_y":40.350222,"long_x":-124.323474,"region":"North America","subregion":null,"min_zoom":5.1},"bbox":[-124.392017,40.442221,-124.392017,40.442221],"geometry":{"type":"Point","coordinates":[-124.392017,40.442221]}},{"type":"Feature","properties":{"scalerank":3,"featurecla":"cape","name":"Cabo San Lucas","comment":null,"name_alt":null,"lat_y":22.887711,"long_x":-109.969843,"region":"North America","subregion":null,"min_zoom":5.1},"bbox":[-109.969838,22.887763,-109.969838,22.887763],"geometry":{"type":"Point","coordinates":[-109.969838,22.887763]}},{"type":"Feature","properties":{"scalerank":3,"featurecla":"cape","name":"Cape Churchill","comment":null,"name_alt":null,"lat_y":58.752014,"long_x":-93.182023,"region":"North America","subregion":null,"min_zoom":5.1},"bbox":[-93.182118,58.752082,-93.182118,58.752082],"geometry":{"type":"Point","coordinates":[-93.182118,58.752082]}},{"type":"Feature","properties":{"scalerank":3,"featurecla":"cape","name":"Cape Cod","comment":null,"name_alt":null,"lat_y":41.734867,"long_x":-69.964865,"region":"North America","subregion":null,"min_zoom":5.1},"bbox":[-70.036878,41.991459,-70.036878,41.991459],"geometry":{"type":"Point","coordinates":[-70.036878,41.991459]}},{"type":"Feature","properties":{"scalerank":3,"featurecla":"cape","name":"Cape May","comment":null,"name_alt":null,"lat_y":37.2017,"long_x":-75.926791,"region":"North America","subregion":null,"min_zoom":5.1},"bbox":[-74.951219,38.929696,-74.951219,38.929696],"geometry":{"type":"Point","coordinates":[-74.951219,38.929696]}},{"type":"Feature","properties":{"scalerank":3,"featurecla":"cape","name":"Cabo de Hornos","comment":null,"name_alt":"Cape Horn","lat_y":-55.862824,"long_x":-67.169425,"region":"South America","subregion":null,"min_zoom":5.1},"bbox":[-67.169423,-55.862848,-67.169423,-55.862848],"geometry":{"type":"Point","coordinates":[-67.169423,-55.862848]}},{"type":"Feature","properties":{"scalerank":3,"featurecla":"cape","name":"Cape of Good Hope","comment":null,"name_alt":null,"lat_y":-34.307311,"long_x":18.441206,"region":"Africa","subregion":null,"min_zoom":5.1},"bbox":[18.441295,-34.307184,18.441295,-34.307184],"geometry":{"type":"Point","coordinates":[18.441295,-34.307184]}},{"type":"Feature","properties":{"scalerank":3,"featurecla":"cape","name":"Cape Palmas","comment":null,"name_alt":null,"lat_y":4.373924,"long_x":-7.457356,"region":"Africa","subregion":null,"min_zoom":5.1},"bbox":[-7.457387,4.373969,-7.457387,4.373969],"geometry":{"type":"Point","coordinates":[-7.457387,4.373969]}},{"type":"Feature","properties":{"scalerank":3,"featurecla":"cape","name":"Cape Verde","comment":null,"name_alt":null,"lat_y":14.732312,"long_x":-17.471776,"region":"Africa","subregion":null,"min_zoom":5.1},"bbox":[-17.47173,14.732489,-17.47173,14.732489],"geometry":{"type":"Point","coordinates":[-17.47173,14.732489]}},{"type":"Feature","properties":{"scalerank":3,"featurecla":"cape","name":"Cap Bon","comment":null,"name_alt":null,"lat_y":37.073954,"long_x":11.024061,"region":"Africa","subregion":null,"min_zoom":5.1},"bbox":[11.024181,37.073981,11.024181,37.073981],"geometry":{"type":"Point","coordinates":[11.024181,37.073981]}},{"type":"Feature","properties":{"scalerank":3,"featurecla":"pole","name":"Oceanic pole of inaccessibility","comment":null,"name_alt":null,"lat_y":-48.865032,"long_x":-123.401986,"region":"Seven seas (open ocean)","subregion":"South Pacific Ocean","min_zoom":5.1},"bbox":[-123.402028,-48.865045,-123.402028,-48.865045],"geometry":{"type":"Point","coordinates":[-123.402028,-48.865045]}},{"type":"Feature","properties":{"scalerank":3,"featurecla":"pole","name":"South Magnetic Pole 2005 (est)","comment":null,"name_alt":null,"lat_y":-48.865032,"long_x":-123.401986,"region":"Antarctica","subregion":"Southern Ocean","min_zoom":5.1},"bbox":[137.854259,-64.518243,137.854259,-64.518243],"geometry":{"type":"Point","coordinates":[137.854259,-64.518243]}},{"type":"Feature","properties":{"scalerank":3,"featurecla":"pole","name":"North Magnetic Pole 2005 (est)","comment":null,"name_alt":null,"lat_y":-48.865032,"long_x":-123.401986,"region":"Seven seas (open ocean)","subregion":"Arctic Ocean","min_zoom":5.1},"bbox":[-114.40569,82.710089,-114.40569,82.710089],"geometry":{"type":"Point","coordinates":[-114.40569,82.710089]}},{"type":"Feature","properties":{"scalerank":4,"featurecla":"cape","name":"Lands End","comment":null,"name_alt":null,"lat_y":50.069677,"long_x":-5.668629,"region":"Europe","subregion":"British Isles","min_zoom":5.7},"bbox":[-5.66863,50.069709,-5.66863,50.069709],"geometry":{"type":"Point","coordinates":[-5.66863,50.069709]}},{"type":"Feature","properties":{"scalerank":4,"featurecla":"cape","name":"Cape York","comment":null,"name_alt":null,"lat_y":76.218919,"long_x":-68.218612,"region":"North America","subregion":"Greenland","min_zoom":5.7},"bbox":[-68.218617,76.218878,-68.218617,76.218878],"geometry":{"type":"Point","coordinates":[-68.218617,76.218878]}},{"type":"Feature","properties":{"scalerank":4,"featurecla":"cape","name":"Nunap Isua","comment":null,"name_alt":"Cape Farewell","lat_y":59.862583,"long_x":-43.90088,"region":"North America","subregion":"Greenland","min_zoom":5.7},"bbox":[-43.900807,59.862677,-43.900807,59.862677],"geometry":{"type":"Point","coordinates":[-43.900807,59.862677]}},{"type":"Feature","properties":{"scalerank":4,"featurecla":"cape","name":"Cape Vohimena","comment":null,"name_alt":null,"lat_y":-25.546355,"long_x":45.158683,"region":"Africa","subregion":"Indian Ocean","min_zoom":5.7},"bbox":[45.158702,-25.546319,45.158702,-25.546319],"geometry":{"type":"Point","coordinates":[45.158702,-25.546319]}},{"type":"Feature","properties":{"scalerank":4,"featurecla":"island","name":"Vavau","comment":null,"name_alt":null,"lat_y":-18.590062,"long_x":-173.976769,"region":"Oceania","subregion":"Polynesia","min_zoom":5.7},"bbox":[-173.976735,-18.59002,-173.976735,-18.59002],"geometry":{"type":"Point","coordinates":[-173.976735,-18.59002]}},{"type":"Feature","properties":{"scalerank":4,"featurecla":"island","name":"I. de Pascua","comment":null,"name_alt":"Easter I.","lat_y":-27.102117,"long_x":-109.367953,"region":"Oceania","subregion":"Polynesia","min_zoom":5.7},"bbox":[-109.367909,-27.102227,-109.367909,-27.102227],"geometry":{"type":"Point","coordinates":[-109.367909,-27.102227]}},{"type":"Feature","properties":{"scalerank":4,"featurecla":"cape","name":"Cape Agulhas","comment":null,"name_alt":null,"lat_y":-34.801182,"long_x":19.993472,"region":"Africa","subregion":null,"min_zoom":5.7},"bbox":[19.993419,-34.80108,19.993419,-34.80108],"geometry":{"type":"Point","coordinates":[19.993419,-34.80108]}},{"type":"Feature","properties":{"scalerank":4,"featurecla":"plain","name":"Plain of Jars","comment":null,"name_alt":null,"lat_y":20.550709,"long_x":101.890532,"region":"Asia","subregion":null,"min_zoom":5.7},"bbox":[101.890636,20.55091,101.890636,20.55091],"geometry":{"type":"Point","coordinates":[101.890636,20.55091]}},{"type":"Feature","properties":{"scalerank":4,"featurecla":"cape","name":"Cabo Corrientes","comment":null,"name_alt":null,"lat_y":20.409471,"long_x":-105.683581,"region":"North America","subregion":null,"min_zoom":5.7},"bbox":[-105.677959,20.420365,-105.677959,20.420365],"geometry":{"type":"Point","coordinates":[-105.677959,20.420365]}},{"type":"Feature","properties":{"scalerank":4,"featurecla":"cape","name":"Pt. Eugenia","comment":null,"name_alt":null,"lat_y":27.861925,"long_x":-115.07629,"region":"North America","subregion":null,"min_zoom":5.7},"bbox":[-115.046239,27.842887,-115.046239,27.842887],"geometry":{"type":"Point","coordinates":[-115.046239,27.842887]}},{"type":"Feature","properties":{"scalerank":4,"featurecla":"cape","name":"Point Conception","comment":null,"name_alt":null,"lat_y":34.582313,"long_x":-120.659016,"region":"North America","subregion":null,"min_zoom":5.7},"bbox":[-120.4636,34.460276,-120.4636,34.460276],"geometry":{"type":"Point","coordinates":[-120.4636,34.460276]}},{"type":"Feature","properties":{"scalerank":4,"featurecla":"cape","name":"Cape Hatteras","comment":null,"name_alt":null,"lat_y":35.437762,"long_x":-75.450543,"region":"North America","subregion":null,"min_zoom":5.7},"bbox":[-75.54033,35.244753,-75.54033,35.244753],"geometry":{"type":"Point","coordinates":[-75.54033,35.244753]}},{"type":"Feature","properties":{"scalerank":4,"featurecla":"cape","name":"Cape Sable","comment":null,"name_alt":null,"lat_y":25.124896,"long_x":-81.090442,"region":"North America","subregion":null,"min_zoom":5.7},"bbox":[-81.090443,25.124762,-81.090443,25.124762],"geometry":{"type":"Point","coordinates":[-81.090443,25.124762]}},{"type":"Feature","properties":{"scalerank":4,"featurecla":"cape","name":"Cape Hope","comment":null,"name_alt":null,"lat_y":68.35638,"long_x":-166.815582,"region":"North America","subregion":null,"min_zoom":5.7},"bbox":[-166.813213,68.353802,-166.813213,68.353802],"geometry":{"type":"Point","coordinates":[-166.813213,68.353802]}},{"type":"Feature","properties":{"scalerank":4,"featurecla":"cape","name":"Point Barrow","comment":null,"name_alt":null,"lat_y":71.372637,"long_x":-156.615894,"region":"North America","subregion":null,"min_zoom":5.7},"bbox":[-156.471949,71.405891,-156.471949,71.405891],"geometry":{"type":"Point","coordinates":[-156.471949,71.405891]}},{"type":"Feature","properties":{"scalerank":4,"featurecla":"cape","name":"Punta Negra","comment":null,"name_alt":null,"lat_y":-5.948875,"long_x":-81.108252,"region":"South America","subregion":null,"min_zoom":5.7},"bbox":[-81.108327,-5.948663,-81.108327,-5.948663],"geometry":{"type":"Point","coordinates":[-81.108327,-5.948663]}},{"type":"Feature","properties":{"scalerank":4,"featurecla":"cape","name":"Punta Lavapié","comment":null,"name_alt":null,"lat_y":-37.262867,"long_x":-73.606377,"region":"South America","subregion":null,"min_zoom":5.7},"bbox":[-73.603044,-37.1712,-73.603044,-37.1712],"geometry":{"type":"Point","coordinates":[-73.603044,-37.1712]}},{"type":"Feature","properties":{"scalerank":4,"featurecla":"cape","name":"Punta Galera","comment":null,"name_alt":null,"lat_y":0.731221,"long_x":-80.062205,"region":"South America","subregion":null,"min_zoom":5.7},"bbox":[-80.062123,0.731208,-80.062123,0.731208],"geometry":{"type":"Point","coordinates":[-80.062123,0.731208]}},{"type":"Feature","properties":{"scalerank":4,"featurecla":"cape","name":"Cap Lopez","comment":null,"name_alt":null,"lat_y":-0.604761,"long_x":8.726423,"region":"Africa","subregion":null,"min_zoom":5.7},"bbox":[8.7273,-0.615086,8.7273,-0.615086],"geometry":{"type":"Point","coordinates":[8.7273,-0.615086]}},{"type":"Feature","properties":{"scalerank":4,"featurecla":"cape","name":"Cape Bobaomby","comment":null,"name_alt":null,"lat_y":-11.966598,"long_x":49.262904,"region":"Africa","subregion":null,"min_zoom":5.7},"bbox":[49.262828,-11.966485,49.262828,-11.966485],"geometry":{"type":"Point","coordinates":[49.262828,-11.966485]}},{"type":"Feature","properties":{"scalerank":4,"featurecla":"cape","name":"Cap Blanc","comment":null,"name_alt":null,"lat_y":20.822108,"long_x":-17.052856,"region":"Africa","subregion":null,"min_zoom":5.7},"bbox":[-17.052907,20.822089,-17.052907,20.822089],"geometry":{"type":"Point","coordinates":[-17.052907,20.822089]}},{"type":"Feature","properties":{"scalerank":5,"featurecla":"cape","name":"South West Cape","comment":null,"name_alt":null,"lat_y":-43.510984,"long_x":146.054227,"region":"Oceania","subregion":"Australia","min_zoom":6},"bbox":[146.033798,-43.540403,146.033798,-43.540403],"geometry":{"type":"Point","coordinates":[146.033798,-43.540403]}},{"type":"Feature","properties":{"scalerank":5,"featurecla":"cape","name":"Cape Howe","comment":null,"name_alt":null,"lat_y":-37.488775,"long_x":149.958534,"region":"Oceania","subregion":"Australia","min_zoom":6},"bbox":[149.958385,-37.488946,149.958385,-37.488946],"geometry":{"type":"Point","coordinates":[149.958385,-37.488946]}},{"type":"Feature","properties":{"scalerank":5,"featurecla":"cape","name":"Cape Otway","comment":null,"name_alt":null,"lat_y":-38.857622,"long_x":143.565403,"region":"Oceania","subregion":"Australia","min_zoom":6},"bbox":[143.537005,-38.854724,143.537005,-38.854724],"geometry":{"type":"Point","coordinates":[143.537005,-38.854724]}},{"type":"Feature","properties":{"scalerank":5,"featurecla":"cape","name":"Cape Jaffa","comment":null,"name_alt":null,"lat_y":-36.944244,"long_x":139.690866,"region":"Oceania","subregion":"Australia","min_zoom":6},"bbox":[139.68062,-36.956243,139.68062,-36.956243],"geometry":{"type":"Point","coordinates":[139.68062,-36.956243]}},{"type":"Feature","properties":{"scalerank":5,"featurecla":"cape","name":"Cape Carnot","comment":null,"name_alt":null,"lat_y":-34.920233,"long_x":135.656027,"region":"Oceania","subregion":"Australia","min_zoom":6},"bbox":[135.653783,-34.938709,135.653783,-34.938709],"geometry":{"type":"Point","coordinates":[135.653783,-34.938709]}},{"type":"Feature","properties":{"scalerank":5,"featurecla":"cape","name":"Cape Byron","comment":null,"name_alt":null,"lat_y":-28.658282,"long_x":153.632849,"region":"Oceania","subregion":"Australia","min_zoom":6},"bbox":[153.627992,-28.661974,153.627992,-28.661974],"geometry":{"type":"Point","coordinates":[153.627992,-28.661974]}},{"type":"Feature","properties":{"scalerank":5,"featurecla":"cape","name":"Cape Manifold","comment":null,"name_alt":null,"lat_y":-22.702081,"long_x":150.811228,"region":"Oceania","subregion":"Australia","min_zoom":6},"bbox":[150.811168,-22.702081,150.811168,-22.702081],"geometry":{"type":"Point","coordinates":[150.811168,-22.702081]}},{"type":"Feature","properties":{"scalerank":5,"featurecla":"cape","name":"Cape York","comment":null,"name_alt":null,"lat_y":-10.710859,"long_x":142.522018,"region":"Oceania","subregion":"Australia","min_zoom":6},"bbox":[142.521739,-10.710748,142.521739,-10.710748],"geometry":{"type":"Point","coordinates":[142.521739,-10.710748]}},{"type":"Feature","properties":{"scalerank":5,"featurecla":"cape","name":"Cape Melville","comment":null,"name_alt":null,"lat_y":-14.163629,"long_x":144.506417,"region":"Oceania","subregion":"Australia","min_zoom":6},"bbox":[144.506602,-14.163507,144.506602,-14.163507],"geometry":{"type":"Point","coordinates":[144.506602,-14.163507]}},{"type":"Feature","properties":{"scalerank":5,"featurecla":"cape","name":"Cape Arnhem","comment":null,"name_alt":null,"lat_y":-12.337984,"long_x":136.952429,"region":"Oceania","subregion":"Australia","min_zoom":6},"bbox":[136.914819,-12.295663,136.914819,-12.295663],"geometry":{"type":"Point","coordinates":[136.914819,-12.295663]}},{"type":"Feature","properties":{"scalerank":5,"featurecla":"cape","name":"West Cape Howe","comment":null,"name_alt":null,"lat_y":-35.104301,"long_x":117.597011,"region":"Oceania","subregion":"Australia","min_zoom":6},"bbox":[117.596934,-35.104303,117.596934,-35.104303],"geometry":{"type":"Point","coordinates":[117.596934,-35.104303]}},{"type":"Feature","properties":{"scalerank":5,"featurecla":"cape","name":"Cape Leeuwin","comment":null,"name_alt":null,"lat_y":-34.297841,"long_x":115.10633,"region":"Oceania","subregion":"Australia","min_zoom":6},"bbox":[115.128009,-34.328007,115.128009,-34.328007],"geometry":{"type":"Point","coordinates":[115.128009,-34.328007]}},{"type":"Feature","properties":{"scalerank":5,"featurecla":"cape","name":"Cape Pasley","comment":null,"name_alt":null,"lat_y":-33.929054,"long_x":123.517283,"region":"Oceania","subregion":"Australia","min_zoom":6},"bbox":[123.517223,-33.928888,123.517223,-33.928888],"geometry":{"type":"Point","coordinates":[123.517223,-33.928888]}},{"type":"Feature","properties":{"scalerank":5,"featurecla":"cape","name":"Cape Londonderry","comment":null,"name_alt":null,"lat_y":-13.713856,"long_x":126.964514,"region":"Oceania","subregion":"Australia","min_zoom":6},"bbox":[126.9413,-13.742906,126.9413,-13.742906],"geometry":{"type":"Point","coordinates":[126.9413,-13.742906]}},{"type":"Feature","properties":{"scalerank":5,"featurecla":"cape","name":"Steep Point","comment":null,"name_alt":null,"lat_y":-26.16822,"long_x":113.169959,"region":"Oceania","subregion":"Australia","min_zoom":6},"bbox":[113.145196,-26.157464,113.145196,-26.157464],"geometry":{"type":"Point","coordinates":[113.145196,-26.157464]}},{"type":"Feature","properties":{"scalerank":5,"featurecla":"cape","name":"North West Cape","comment":null,"name_alt":null,"lat_y":-21.809776,"long_x":114.117534,"region":"Oceania","subregion":"Australia","min_zoom":6},"bbox":[114.160108,-21.801475,114.160108,-21.801475],"geometry":{"type":"Point","coordinates":[114.160108,-21.801475]}},{"type":"Feature","properties":{"scalerank":5,"featurecla":"cape","name":"Cabo Gracias a Dios","comment":null,"name_alt":null,"lat_y":14.994242,"long_x":-83.15866,"region":"North America","subregion":"Central America","min_zoom":6},"bbox":[-83.158742,14.994208,-83.158742,14.994208],"geometry":{"type":"Point","coordinates":[-83.158742,14.994208]}},{"type":"Feature","properties":{"scalerank":5,"featurecla":"cape","name":"Cape Brewster","comment":null,"name_alt":null,"lat_y":70.150754,"long_x":-22.122616,"region":"North America","subregion":"Greenland","min_zoom":6},"bbox":[-22.122731,70.150885,-22.122731,70.150885],"geometry":{"type":"Point","coordinates":[-22.122731,70.150885]}},{"type":"Feature","properties":{"scalerank":5,"featurecla":"cape","name":"Cape Morris Jesup","comment":null,"name_alt":null,"lat_y":83.626331,"long_x":-32.491541,"region":"North America","subregion":"Greenland","min_zoom":6},"bbox":[-32.491506,83.626288,-32.491506,83.626288],"geometry":{"type":"Point","coordinates":[-32.491506,83.626288]}},{"type":"Feature","properties":{"scalerank":5,"featurecla":"island","name":"Grmsey","comment":null,"name_alt":null,"lat_y":66.669359,"long_x":-18.251096,"region":"Europe","subregion":"Iceland","min_zoom":6},"bbox":[-18.251088,66.669379,-18.251088,66.669379],"geometry":{"type":"Point","coordinates":[-18.251088,66.669379]}},{"type":"Feature","properties":{"scalerank":5,"featurecla":"island","name":"Surtsey","comment":null,"name_alt":null,"lat_y":63.217764,"long_x":-20.434929,"region":"Europe","subregion":"Iceland","min_zoom":6},"bbox":[-20.434804,63.217719,-20.434804,63.217719],"geometry":{"type":"Point","coordinates":[-20.434804,63.217719]}},{"type":"Feature","properties":{"scalerank":5,"featurecla":"cape","name":"Cap Est","comment":null,"name_alt":null,"lat_y":-15.274849,"long_x":50.499889,"region":"Africa","subregion":"Indian Ocean","min_zoom":6},"bbox":[50.499766,-15.274957,50.499766,-15.274957],"geometry":{"type":"Point","coordinates":[50.499766,-15.274957]}},{"type":"Feature","properties":{"scalerank":5,"featurecla":"cape","name":"Cape Cretin","comment":null,"name_alt":null,"lat_y":-6.637492,"long_x":147.852392,"region":"Oceania","subregion":"Melanesia","min_zoom":6},"bbox":[147.852428,-6.637262,147.852428,-6.637262],"geometry":{"type":"Point","coordinates":[147.852428,-6.637262]}},{"type":"Feature","properties":{"scalerank":5,"featurecla":"island","name":"Îles Chesterfield","comment":null,"name_alt":null,"lat_y":-19.20447,"long_x":159.95171,"region":"Oceania","subregion":"Melanesia","min_zoom":6},"bbox":[159.951671,-19.204644,159.951671,-19.204644],"geometry":{"type":"Point","coordinates":[159.951671,-19.204644]}},{"type":"Feature","properties":{"scalerank":5,"featurecla":"island","name":"Pagan","comment":null,"name_alt":null,"lat_y":18.119631,"long_x":145.785087,"region":"Oceania","subregion":"Micronesia","min_zoom":6},"bbox":[145.784923,18.119635,145.784923,18.119635],"geometry":{"type":"Point","coordinates":[145.784923,18.119635]}},{"type":"Feature","properties":{"scalerank":5,"featurecla":"island","name":"Wake I.","comment":null,"name_alt":null,"lat_y":19.303497,"long_x":166.636262,"region":"Oceania","subregion":"Micronesia","min_zoom":6},"bbox":[166.636241,19.303595,166.636241,19.303595],"geometry":{"type":"Point","coordinates":[166.636241,19.303595]}},{"type":"Feature","properties":{"scalerank":5,"featurecla":"island","name":"Tabiteuea","comment":null,"name_alt":null,"lat_y":-1.201405,"long_x":174.755207,"region":"Oceania","subregion":"Micronesia","min_zoom":6},"bbox":[174.755138,-1.201349,174.755138,-1.201349],"geometry":{"type":"Point","coordinates":[174.755138,-1.201349]}},{"type":"Feature","properties":{"scalerank":5,"featurecla":"island","name":"Aranuka","comment":null,"name_alt":null,"lat_y":0.226766,"long_x":173.626286,"region":"Oceania","subregion":"Micronesia","min_zoom":6},"bbox":[173.626231,0.226752,173.626231,0.226752],"geometry":{"type":"Point","coordinates":[173.626231,0.226752]}},{"type":"Feature","properties":{"scalerank":5,"featurecla":"island","name":"Nauru","comment":null,"name_alt":null,"lat_y":-0.505856,"long_x":166.930778,"region":"Oceania","subregion":"Micronesia","min_zoom":6},"bbox":[166.930675,-0.505792,166.930675,-0.505792],"geometry":{"type":"Point","coordinates":[166.930675,-0.505792]}},{"type":"Feature","properties":{"scalerank":5,"featurecla":"island","name":"Ebon","comment":null,"name_alt":null,"lat_y":4.59977,"long_x":168.736432,"region":"Oceania","subregion":"Micronesia","min_zoom":6},"bbox":[168.736339,4.599799,168.736339,4.599799],"geometry":{"type":"Point","coordinates":[168.736339,4.599799]}},{"type":"Feature","properties":{"scalerank":5,"featurecla":"island","name":"Jaluit","comment":null,"name_alt":null,"lat_y":5.964455,"long_x":169.682894,"region":"Oceania","subregion":"Micronesia","min_zoom":6},"bbox":[169.682994,5.964484,169.682994,5.964484],"geometry":{"type":"Point","coordinates":[169.682994,5.964484]}},{"type":"Feature","properties":{"scalerank":5,"featurecla":"island","name":"Mili","comment":null,"name_alt":null,"lat_y":6.107334,"long_x":171.725875,"region":"Oceania","subregion":"Micronesia","min_zoom":6},"bbox":[171.725841,6.107489,171.725841,6.107489],"geometry":{"type":"Point","coordinates":[171.725841,6.107489]}},{"type":"Feature","properties":{"scalerank":5,"featurecla":"island","name":"Majuro","comment":null,"name_alt":null,"lat_y":7.118009,"long_x":171.159743,"region":"Oceania","subregion":"Micronesia","min_zoom":6},"bbox":[171.159801,7.117987,171.159801,7.117987],"geometry":{"type":"Point","coordinates":[171.159801,7.117987]}},{"type":"Feature","properties":{"scalerank":5,"featurecla":"island","name":"Ailinglapalap","comment":null,"name_alt":null,"lat_y":7.276392,"long_x":168.596926,"region":"Oceania","subregion":"Micronesia","min_zoom":6},"bbox":[168.596934,7.276496,168.596934,7.276496],"geometry":{"type":"Point","coordinates":[168.596934,7.276496]}},{"type":"Feature","properties":{"scalerank":5,"featurecla":"island","name":"Kwajalein","comment":null,"name_alt":null,"lat_y":8.746619,"long_x":167.735072,"region":"Oceania","subregion":"Micronesia","min_zoom":6},"bbox":[167.735118,8.746711,167.735118,8.746711],"geometry":{"type":"Point","coordinates":[167.735118,8.746711]}},{"type":"Feature","properties":{"scalerank":5,"featurecla":"island","name":"Rongelap","comment":null,"name_alt":null,"lat_y":11.164329,"long_x":166.869876,"region":"Oceania","subregion":"Micronesia","min_zoom":6},"bbox":[166.869884,11.164496,166.869884,11.164496],"geometry":{"type":"Point","coordinates":[166.869884,11.164496]}},{"type":"Feature","properties":{"scalerank":5,"featurecla":"island","name":"Bikini","comment":null,"name_alt":null,"lat_y":11.639231,"long_x":165.550698,"region":"Oceania","subregion":"Micronesia","min_zoom":6},"bbox":[165.550426,11.639289,165.550426,11.639289],"geometry":{"type":"Point","coordinates":[165.550426,11.639289]}},{"type":"Feature","properties":{"scalerank":5,"featurecla":"cape","name":"Cape Reinga","comment":null,"name_alt":null,"lat_y":-34.432767,"long_x":172.728503,"region":"Oceania","subregion":"New Zealand","min_zoom":6},"bbox":[172.705581,-34.420391,172.705581,-34.420391],"geometry":{"type":"Point","coordinates":[172.705581,-34.420391]}},{"type":"Feature","properties":{"scalerank":5,"featurecla":"island","name":"Kanton","comment":null,"name_alt":null,"lat_y":-2.757106,"long_x":-171.717033,"region":"Oceania","subregion":"Polynesia","min_zoom":6},"bbox":[-171.71703,-2.757135,-171.71703,-2.757135],"geometry":{"type":"Point","coordinates":[-171.71703,-2.757135]}},{"type":"Feature","properties":{"scalerank":5,"featurecla":"island","name":"Tabuaeran","comment":null,"name_alt":"Fanning I.","lat_y":3.866545,"long_x":-159.326781,"region":"Oceania","subregion":"Polynesia","min_zoom":6},"bbox":[-159.326833,3.866706,-159.326833,3.866706],"geometry":{"type":"Point","coordinates":[-159.326833,3.866706]}},{"type":"Feature","properties":{"scalerank":5,"featurecla":"island","name":"Malden","comment":null,"name_alt":null,"lat_y":-4.042491,"long_x":-154.983478,"region":"Oceania","subregion":"Polynesia","min_zoom":6},"bbox":[-154.98351,-4.042657,-154.98351,-4.042657],"geometry":{"type":"Point","coordinates":[-154.98351,-4.042657]}},{"type":"Feature","properties":{"scalerank":5,"featurecla":"island","name":"Rarotonga","comment":null,"name_alt":null,"lat_y":-21.201867,"long_x":-159.797637,"region":"Oceania","subregion":"Polynesia","min_zoom":6},"bbox":[-159.797719,-21.201837,-159.797719,-21.201837],"geometry":{"type":"Point","coordinates":[-159.797719,-21.201837]}},{"type":"Feature","properties":{"scalerank":5,"featurecla":"island","name":"Rangiroa","comment":null,"name_alt":null,"lat_y":-15.2046,"long_x":-147.773967,"region":"Oceania","subregion":"Polynesia","min_zoom":6},"bbox":[-147.774037,-15.204767,-147.774037,-15.204767],"geometry":{"type":"Point","coordinates":[-147.774037,-15.204767]}},{"type":"Feature","properties":{"scalerank":5,"featurecla":"island","name":"Funafuti","comment":null,"name_alt":null,"lat_y":-8.491577,"long_x":179.198413,"region":"Oceania","subregion":"Polynesia","min_zoom":6},"bbox":[179.198375,-8.491632,179.198375,-8.491632],"geometry":{"type":"Point","coordinates":[179.198375,-8.491632]}},{"type":"Feature","properties":{"scalerank":5,"featurecla":"island","name":"St. Croix","comment":null,"name_alt":null,"lat_y":17.762944,"long_x":-64.763088,"region":"North America","subregion":"West Indies","min_zoom":6},"bbox":[-64.763173,17.763007,-64.763173,17.763007],"geometry":{"type":"Point","coordinates":[-64.763173,17.763007]}},{"type":"Feature","properties":{"scalerank":5,"featurecla":"island","name":"Grand Cayman","comment":null,"name_alt":null,"lat_y":19.315829,"long_x":-81.271416,"region":"North America","subregion":"West Indies","min_zoom":6},"bbox":[-81.271596,19.315802,-81.271596,19.315802],"geometry":{"type":"Point","coordinates":[-81.271596,19.315802]}},{"type":"Feature","properties":{"scalerank":5,"featurecla":"island","name":"San  Salvador","comment":null,"name_alt":null,"lat_y":24.052793,"long_x":-74.492848,"region":"North America","subregion":"West Indies","min_zoom":6},"bbox":[-74.492909,24.052802,-74.492909,24.052802],"geometry":{"type":"Point","coordinates":[-74.492909,24.052802]}},{"type":"Feature","properties":{"scalerank":5,"featurecla":"island","name":"Grenada","comment":null,"name_alt":null,"lat_y":12.105978,"long_x":-61.723079,"region":"North America","subregion":"West Indies","min_zoom":6},"bbox":[-61.723195,12.105963,-61.723195,12.105963],"geometry":{"type":"Point","coordinates":[-61.723195,12.105963]}},{"type":"Feature","properties":{"scalerank":5,"featurecla":"island","name":"Barbuda","comment":null,"name_alt":null,"lat_y":17.622525,"long_x":-61.789243,"region":"North America","subregion":"West Indies","min_zoom":6},"bbox":[-61.789296,17.622626,-61.789296,17.622626],"geometry":{"type":"Point","coordinates":[-61.789296,17.622626]}},{"type":"Feature","properties":{"scalerank":5,"featurecla":"island","name":"Antigua","comment":null,"name_alt":null,"lat_y":17.040441,"long_x":-61.775982,"region":"North America","subregion":"West Indies","min_zoom":6},"bbox":[-61.775929,17.040595,-61.775929,17.040595],"geometry":{"type":"Point","coordinates":[-61.775929,17.040595]}},{"type":"Feature","properties":{"scalerank":5,"featurecla":"island","name":"Guadeloupe","comment":null,"name_alt":null,"lat_y":16.180583,"long_x":-61.656947,"region":"North America","subregion":"West Indies","min_zoom":6},"bbox":[-61.657033,16.18067,-61.657033,16.18067],"geometry":{"type":"Point","coordinates":[-61.657033,16.18067]}},{"type":"Feature","properties":{"scalerank":5,"featurecla":"island","name":"Dominica","comment":null,"name_alt":null,"lat_y":15.452943,"long_x":-61.352652,"region":"North America","subregion":"West Indies","min_zoom":6},"bbox":[-61.352712,15.452887,-61.352712,15.452887],"geometry":{"type":"Point","coordinates":[-61.352712,15.452887]}},{"type":"Feature","properties":{"scalerank":5,"featurecla":"island","name":"Martinique","comment":null,"name_alt":null,"lat_y":14.672462,"long_x":-61.008715,"region":"North America","subregion":"West Indies","min_zoom":6},"bbox":[-61.008839,14.672492,-61.008839,14.672492],"geometry":{"type":"Point","coordinates":[-61.008839,14.672492]}},{"type":"Feature","properties":{"scalerank":5,"featurecla":"island","name":"Saint Lucia","comment":null,"name_alt":null,"lat_y":13.918332,"long_x":-60.982225,"region":"North America","subregion":"West Indies","min_zoom":6},"bbox":[-60.982228,13.91828,-60.982228,13.91828],"geometry":{"type":"Point","coordinates":[-60.982228,13.91828]}},{"type":"Feature","properties":{"scalerank":5,"featurecla":"island","name":"Saint Vincent","comment":null,"name_alt":null,"lat_y":13.270131,"long_x":-61.207143,"region":"North America","subregion":"West Indies","min_zoom":6},"bbox":[-61.207204,13.270209,-61.207204,13.270209],"geometry":{"type":"Point","coordinates":[-61.207204,13.270209]}},{"type":"Feature","properties":{"scalerank":5,"featurecla":"island","name":"Barbados","comment":null,"name_alt":null,"lat_y":13.164326,"long_x":-59.566742,"region":"North America","subregion":"West Indies","min_zoom":6},"bbox":[-59.566823,13.164252,-59.566823,13.164252],"geometry":{"type":"Point","coordinates":[-59.566823,13.164252]}},{"type":"Feature","properties":{"scalerank":5,"featurecla":"island","name":"Tobago","comment":null,"name_alt":null,"lat_y":11.259334,"long_x":-60.677992,"region":"South America","subregion":"West Indies","min_zoom":6},"bbox":[-60.67809,11.259284,-60.67809,11.259284],"geometry":{"type":"Point","coordinates":[-60.67809,11.259284]}},{"type":"Feature","properties":{"scalerank":5,"featurecla":"island","name":"Margarita","comment":null,"name_alt":null,"lat_y":10.981467,"long_x":-64.051401,"region":"South America","subregion":"West Indies","min_zoom":6},"bbox":[-64.051442,10.981513,-64.051442,10.981513],"geometry":{"type":"Point","coordinates":[-64.051442,10.981513]}},{"type":"Feature","properties":{"scalerank":5,"featurecla":"island","name":"Curaçao","comment":null,"name_alt":null,"lat_y":12.185355,"long_x":-68.999109,"region":"North America","subregion":"West Indies","min_zoom":6},"bbox":[-68.999196,12.185309,-68.999196,12.185309],"geometry":{"type":"Point","coordinates":[-68.999196,12.185309]}},{"type":"Feature","properties":{"scalerank":5,"featurecla":"island","name":"Aruba","comment":null,"name_alt":null,"lat_y":12.502849,"long_x":-69.96488,"region":"North America","subregion":"West Indies","min_zoom":6},"bbox":[-69.965016,12.502753,-69.965016,12.502753],"geometry":{"type":"Point","coordinates":[-69.965016,12.502753]}},{"type":"Feature","properties":{"scalerank":5,"featurecla":"cape","name":"Ra’s Banäs","comment":null,"name_alt":null,"lat_y":23.950592,"long_x":35.778059,"region":"Africa","subregion":null,"min_zoom":6},"bbox":[35.778087,23.950629,35.778087,23.950629],"geometry":{"type":"Point","coordinates":[35.778087,23.950629]}},{"type":"Feature","properties":{"scalerank":5,"featurecla":"cape","name":"Ponta das Salinas","comment":null,"name_alt":null,"lat_y":-12.832908,"long_x":12.928991,"region":"Africa","subregion":null,"min_zoom":6},"bbox":[12.968705,-12.855718,12.968705,-12.855718],"geometry":{"type":"Point","coordinates":[12.968705,-12.855718]}},{"type":"Feature","properties":{"scalerank":5,"featurecla":"cape","name":"Ponta das Palmeirinhas","comment":null,"name_alt":null,"lat_y":-9.071387,"long_x":12.999549,"region":"Africa","subregion":null,"min_zoom":6},"bbox":[13.033811,-9.099938,13.033811,-9.099938],"geometry":{"type":"Point","coordinates":[13.033811,-9.099938]}},{"type":"Feature","properties":{"scalerank":5,"featurecla":"cape","name":"Cabo Bojador","comment":null,"name_alt":null,"lat_y":26.157836,"long_x":-14.473111,"region":"Africa","subregion":null,"min_zoom":6},"bbox":[-14.473195,26.157965,-14.473195,26.157965],"geometry":{"type":"Point","coordinates":[-14.473195,26.157965]}},{"type":"Feature","properties":{"scalerank":5,"featurecla":"cape","name":"Cape Comorin","comment":null,"name_alt":null,"lat_y":8.143554,"long_x":77.471497,"region":"Asia","subregion":null,"min_zoom":6},"bbox":[77.512105,8.085339,77.512105,8.085339],"geometry":{"type":"Point","coordinates":[77.512105,8.085339]}},{"type":"Feature","properties":{"scalerank":5,"featurecla":"cape","name":"Dondra Head","comment":null,"name_alt":null,"lat_y":5.947528,"long_x":80.616321,"region":"Asia","subregion":null,"min_zoom":6},"bbox":[80.591809,5.929581,80.591809,5.929581],"geometry":{"type":"Point","coordinates":[80.591809,5.929581]}},{"type":"Feature","properties":{"scalerank":5,"featurecla":"cape","name":"Cape Yelizavety","comment":null,"name_alt":null,"lat_y":54.416083,"long_x":142.720445,"region":"Asia","subregion":null,"min_zoom":6},"bbox":[142.720592,54.416205,142.720592,54.416205],"geometry":{"type":"Point","coordinates":[142.720592,54.416205]}},{"type":"Feature","properties":{"scalerank":5,"featurecla":"cape","name":"Pt. Yuzhnyy","comment":null,"name_alt":null,"lat_y":57.733572,"long_x":156.796426,"region":"Asia","subregion":null,"min_zoom":6},"bbox":[156.796641,57.733466,156.796641,57.733466],"geometry":{"type":"Point","coordinates":[156.796641,57.733466]}},{"type":"Feature","properties":{"scalerank":5,"featurecla":"cape","name":"Cape Sata","comment":null,"name_alt":null,"lat_y":31.026941,"long_x":130.695089,"region":"Asia","subregion":null,"min_zoom":6},"bbox":[130.695201,31.026923,130.695201,31.026923],"geometry":{"type":"Point","coordinates":[130.695201,31.026923]}},{"type":"Feature","properties":{"scalerank":5,"featurecla":"cape","name":"Cape Aniva","comment":null,"name_alt":null,"lat_y":46.081706,"long_x":143.434871,"region":"Asia","subregion":null,"min_zoom":6},"bbox":[143.434825,46.081794,143.434825,46.081794],"geometry":{"type":"Point","coordinates":[143.434825,46.081794]}},{"type":"Feature","properties":{"scalerank":5,"featurecla":"cape","name":"Cape Terpeniya","comment":null,"name_alt":null,"lat_y":48.66928,"long_x":144.712582,"region":"Asia","subregion":null,"min_zoom":6},"bbox":[144.712535,48.669379,144.712535,48.669379],"geometry":{"type":"Point","coordinates":[144.712535,48.669379]}},{"type":"Feature","properties":{"scalerank":5,"featurecla":"cape","name":"Cape Lopatka","comment":null,"name_alt":null,"lat_y":50.914155,"long_x":156.651536,"region":"Asia","subregion":null,"min_zoom":6},"bbox":[156.651622,50.91413,156.651622,50.91413],"geometry":{"type":"Point","coordinates":[156.651622,50.91413]}},{"type":"Feature","properties":{"scalerank":5,"featurecla":"cape","name":"Cape Ozernoy","comment":null,"name_alt":null,"lat_y":57.7708,"long_x":163.246685,"region":"Asia","subregion":null,"min_zoom":6},"bbox":[163.246837,57.77088,163.246837,57.77088],"geometry":{"type":"Point","coordinates":[163.246837,57.77088]}},{"type":"Feature","properties":{"scalerank":5,"featurecla":"cape","name":"Cape Olyutorskiy","comment":null,"name_alt":null,"lat_y":59.960807,"long_x":170.312651,"region":"Asia","subregion":null,"min_zoom":6},"bbox":[170.312877,59.960822,170.312877,59.960822],"geometry":{"type":"Point","coordinates":[170.312877,59.960822]}},{"type":"Feature","properties":{"scalerank":5,"featurecla":"cape","name":"Cape Navarin","comment":null,"name_alt":null,"lat_y":62.327239,"long_x":179.074225,"region":"Asia","subregion":null,"min_zoom":6},"bbox":[179.074229,62.327277,179.074229,62.327277],"geometry":{"type":"Point","coordinates":[179.074229,62.327277]}},{"type":"Feature","properties":{"scalerank":5,"featurecla":"cape","name":"Cape Lopatka","comment":null,"name_alt":null,"lat_y":71.907853,"long_x":150.066042,"region":"Asia","subregion":null,"min_zoom":6},"bbox":[150.065929,71.907782,150.065929,71.907782],"geometry":{"type":"Point","coordinates":[150.065929,71.907782]}},{"type":"Feature","properties":{"scalerank":5,"featurecla":"cape","name":"Cape Ince","comment":null,"name_alt":null,"lat_y":42.084312,"long_x":34.983358,"region":"Asia","subregion":null,"min_zoom":6},"bbox":[34.983287,42.084174,34.983287,42.084174],"geometry":{"type":"Point","coordinates":[34.983287,42.084174]}},{"type":"Feature","properties":{"scalerank":5,"featurecla":"cape","name":"Ra’s Fartak","comment":null,"name_alt":null,"lat_y":15.677412,"long_x":52.229105,"region":"Asia","subregion":null,"min_zoom":6},"bbox":[52.23897,15.657952,52.23897,15.657952],"geometry":{"type":"Point","coordinates":[52.23897,15.657952]}},{"type":"Feature","properties":{"scalerank":5,"featurecla":"cape","name":"Ras Sharbatat","comment":null,"name_alt":null,"lat_y":18.164534,"long_x":56.56827,"region":"Asia","subregion":null,"min_zoom":6},"bbox":[56.558166,18.166986,56.558166,18.166986],"geometry":{"type":"Point","coordinates":[56.558166,18.166986]}},{"type":"Feature","properties":{"scalerank":5,"featurecla":"cape","name":"Ra's al Had","comment":null,"name_alt":null,"lat_y":22.530158,"long_x":59.849134,"region":"Asia","subregion":null,"min_zoom":6},"bbox":[59.799517,22.518675,59.799517,22.518675],"geometry":{"type":"Point","coordinates":[59.799517,22.518675]}},{"type":"Feature","properties":{"scalerank":5,"featurecla":"island","name":"Hachijjima","comment":null,"name_alt":null,"lat_y":33.109796,"long_x":139.804903,"region":"Asia","subregion":null,"min_zoom":6},"bbox":[139.80482,33.109809,139.80482,33.109809],"geometry":{"type":"Point","coordinates":[139.80482,33.109809]}},{"type":"Feature","properties":{"scalerank":5,"featurecla":"cape","name":"Nordkapp","comment":null,"name_alt":null,"lat_y":71.18337,"long_x":25.662398,"region":"Europe","subregion":null,"min_zoom":6},"bbox":[25.660675,71.154502,25.660675,71.154502],"geometry":{"type":"Point","coordinates":[25.660675,71.154502]}},{"type":"Feature","properties":{"scalerank":5,"featurecla":"cape","name":"Cabo de São Vicentete","comment":null,"name_alt":null,"lat_y":37.038304,"long_x":-8.969391,"region":"Europe","subregion":null,"min_zoom":6},"bbox":[-8.969411,37.038275,-8.969411,37.038275],"geometry":{"type":"Point","coordinates":[-8.969411,37.038275]}},{"type":"Feature","properties":{"scalerank":5,"featurecla":"cape","name":"Cabo Fisterra","comment":null,"name_alt":null,"lat_y":42.952418,"long_x":-9.267837,"region":"Europe","subregion":null,"min_zoom":6},"bbox":[-9.269963,42.928736,-9.269963,42.928736],"geometry":{"type":"Point","coordinates":[-9.269963,42.928736]}},{"type":"Feature","properties":{"scalerank":5,"featurecla":"cape","name":"Cape San Blas","comment":null,"name_alt":null,"lat_y":29.713967,"long_x":-85.270961,"region":"North America","subregion":null,"min_zoom":6},"bbox":[-85.270924,29.713996,-85.270924,29.713996],"geometry":{"type":"Point","coordinates":[-85.270924,29.713996]}},{"type":"Feature","properties":{"scalerank":5,"featurecla":"cape","name":"Cape Sable","comment":null,"name_alt":null,"lat_y":43.469097,"long_x":-65.610769,"region":"North America","subregion":null,"min_zoom":6},"bbox":[-65.610829,43.469001,-65.610829,43.469001],"geometry":{"type":"Point","coordinates":[-65.610829,43.469001]}},{"type":"Feature","properties":{"scalerank":5,"featurecla":"cape","name":"Cape Bauld","comment":null,"name_alt":null,"lat_y":51.568576,"long_x":-55.430306,"region":"North America","subregion":null,"min_zoom":6},"bbox":[-55.430287,51.568488,-55.430287,51.568488],"geometry":{"type":"Point","coordinates":[-55.430287,51.568488]}},{"type":"Feature","properties":{"scalerank":5,"featurecla":"cape","name":"Cape Fear","comment":null,"name_alt":null,"lat_y":33.867949,"long_x":-77.990568,"region":"North America","subregion":null,"min_zoom":6},"bbox":[-77.99059,33.867987,-77.99059,33.867987],"geometry":{"type":"Point","coordinates":[-77.99059,33.867987]}},{"type":"Feature","properties":{"scalerank":5,"featurecla":"island","name":"I. Guadalupe","comment":null,"name_alt":null,"lat_y":29.052552,"long_x":-118.317465,"region":"Seven seas (open ocean)","subregion":"North Pacific Ocean","min_zoom":6},"bbox":[-118.317494,29.052497,-118.317494,29.052497],"geometry":{"type":"Point","coordinates":[-118.317494,29.052497]}},{"type":"Feature","properties":{"scalerank":5,"featurecla":"island","name":"Miquelon","comment":null,"name_alt":null,"lat_y":46.929526,"long_x":-56.329884,"region":"North America","subregion":null,"min_zoom":6},"bbox":[-56.329884,46.929389,-56.329884,46.929389],"geometry":{"type":"Point","coordinates":[-56.329884,46.929389]}},{"type":"Feature","properties":{"scalerank":5,"featurecla":"island","name":"I. Robinson Crusoe","comment":null,"name_alt":null,"lat_y":-33.589852,"long_x":-78.872522,"region":"Seven seas (open ocean)","subregion":"South Pacific Ocean","min_zoom":6},"bbox":[-78.872548,-33.589654,-78.872548,-33.589654],"geometry":{"type":"Point","coordinates":[-78.872548,-33.589654]}},{"type":"Feature","properties":{"scalerank":5,"featurecla":"cape","name":"Cabo Orange","comment":null,"name_alt":null,"lat_y":4.125735,"long_x":-51.242144,"region":"South America","subregion":null,"min_zoom":6},"bbox":[-51.262878,4.135614,-51.262878,4.135614],"geometry":{"type":"Point","coordinates":[-51.262878,4.135614]}},{"type":"Feature","properties":{"scalerank":5,"featurecla":"cape","name":"Cabo de Santa Marta Grande","comment":null,"name_alt":null,"lat_y":-28.558078,"long_x":-48.735526,"region":"South America","subregion":null,"min_zoom":6},"bbox":[-48.80338,-28.571983,-48.80338,-28.571983],"geometry":{"type":"Point","coordinates":[-48.80338,-28.571983]}},{"type":"Feature","properties":{"scalerank":5,"featurecla":"cape","name":"Punta del Este","comment":null,"name_alt":null,"lat_y":-34.975503,"long_x":-54.933154,"region":"South America","subregion":null,"min_zoom":6},"bbox":[-54.946288,-34.966587,-54.946288,-34.966587],"geometry":{"type":"Point","coordinates":[-54.946288,-34.966587]}},{"type":"Feature","properties":{"scalerank":5,"featurecla":"cape","name":"Cabo San Antonio","comment":null,"name_alt":null,"lat_y":-36.381052,"long_x":-56.655377,"region":"South America","subregion":null,"min_zoom":6},"bbox":[-56.716792,-36.409599,-56.716792,-36.409599],"geometry":{"type":"Point","coordinates":[-56.716792,-36.409599]}},{"type":"Feature","properties":{"scalerank":5,"featurecla":"cape","name":"Cabo Corrientes","comment":null,"name_alt":null,"lat_y":-38.135985,"long_x":-57.546212,"region":"South America","subregion":null,"min_zoom":6},"bbox":[-57.562523,-38.066377,-57.562523,-38.066377],"geometry":{"type":"Point","coordinates":[-57.562523,-38.066377]}},{"type":"Feature","properties":{"scalerank":5,"featurecla":"cape","name":"Punta Rasa","comment":null,"name_alt":null,"lat_y":-40.834718,"long_x":-62.282201,"region":"South America","subregion":null,"min_zoom":6},"bbox":[-62.259117,-40.726264,-62.259117,-40.726264],"geometry":{"type":"Point","coordinates":[-62.259117,-40.726264]}},{"type":"Feature","properties":{"scalerank":5,"featurecla":"cape","name":"Cabo Dos Bahías","comment":null,"name_alt":null,"lat_y":-44.9887,"long_x":-65.615952,"region":"South America","subregion":null,"min_zoom":6},"bbox":[-65.543833,-44.894398,-65.543833,-44.894398],"geometry":{"type":"Point","coordinates":[-65.543833,-44.894398]}},{"type":"Feature","properties":{"scalerank":5,"featurecla":"cape","name":"Cabo Delgado","comment":null,"name_alt":null,"lat_y":-10.670103,"long_x":40.624309,"region":"Africa","subregion":null,"min_zoom":6},"bbox":[40.6244,-10.670099,40.6244,-10.670099],"geometry":{"type":"Point","coordinates":[40.6244,-10.670099]}},{"type":"Feature","properties":{"scalerank":5,"featurecla":"cape","name":"Ponta da Barra","comment":null,"name_alt":null,"lat_y":-23.829888,"long_x":35.515696,"region":"Africa","subregion":null,"min_zoom":6},"bbox":[35.515636,-23.830011,35.515636,-23.830011],"geometry":{"type":"Point","coordinates":[35.515636,-23.830011]}},{"type":"Feature","properties":{"scalerank":5,"featurecla":"cape","name":"Ponta São Sebastio","comment":null,"name_alt":null,"lat_y":-22.118899,"long_x":35.480417,"region":"Africa","subregion":null,"min_zoom":6},"bbox":[35.480235,-22.118829,35.480235,-22.118829],"geometry":{"type":"Point","coordinates":[35.480235,-22.118829]}},{"type":"Feature","properties":{"scalerank":5,"featurecla":"cape","name":"Ras Cantin","comment":null,"name_alt":null,"lat_y":32.581636,"long_x":-9.273918,"region":"Africa","subregion":null,"min_zoom":6},"bbox":[-9.273915,32.58161,-9.273915,32.58161],"geometry":{"type":"Point","coordinates":[-9.273915,32.58161]}},{"type":"Feature","properties":{"scalerank":5,"featurecla":"cape","name":"Ra’s Kasr","comment":null,"name_alt":null,"lat_y":18.076817,"long_x":38.573746,"region":"Africa","subregion":null,"min_zoom":6},"bbox":[38.580277,18.075168,38.580277,18.075168],"geometry":{"type":"Point","coordinates":[38.580277,18.075168]}},{"type":"Feature","properties":{"scalerank":5,"featurecla":"cape","name":"Ponta de Jericoacoara","comment":null,"name_alt":null,"lat_y":-2.85044,"long_x":-40.067208,"region":"South America","subregion":null,"min_zoom":6},"bbox":[-39.99165,-2.851823,-39.99165,-2.851823],"geometry":{"type":"Point","coordinates":[-39.99165,-2.851823]}},{"type":"Feature","properties":{"scalerank":5,"featurecla":"cape","name":"Cabo de São Roque","comment":null,"name_alt":null,"lat_y":-5.193476,"long_x":-35.447654,"region":"South America","subregion":null,"min_zoom":6},"bbox":[-35.509949,-5.156866,-35.509949,-5.156866],"geometry":{"type":"Point","coordinates":[-35.509949,-5.156866]}},{"type":"Feature","properties":{"scalerank":5,"featurecla":"cape","name":"Ponta da Baleia","comment":null,"name_alt":null,"lat_y":-17.710136,"long_x":-39.157619,"region":"South America","subregion":null,"min_zoom":6},"bbox":[-39.145579,-17.678754,-39.145579,-17.678754],"geometry":{"type":"Point","coordinates":[-39.145579,-17.678754]}},{"type":"Feature","properties":{"scalerank":5,"featurecla":"cape","name":"Cabo de São Tomé","comment":null,"name_alt":null,"lat_y":-21.996382,"long_x":-41.009692,"region":"South America","subregion":null,"min_zoom":6},"bbox":[-40.98764,-21.971755,-40.98764,-21.971755],"geometry":{"type":"Point","coordinates":[-40.98764,-21.971755]}},{"type":"Feature","properties":{"scalerank":5,"featurecla":"cape","name":"Cabo Frio","comment":null,"name_alt":null,"lat_y":-22.869501,"long_x":-41.962188,"region":"South America","subregion":null,"min_zoom":6},"bbox":[-41.890156,-22.759731,-41.890156,-22.759731],"geometry":{"type":"Point","coordinates":[-41.890156,-22.759731]}},{"type":"Feature","properties":{"scalerank":5,"featurecla":"cape","name":"Cabo San Diego","comment":null,"name_alt":null,"lat_y":-54.6406,"long_x":-65.21365,"region":"South America","subregion":null,"min_zoom":6},"bbox":[-65.213612,-54.64068,-65.213612,-54.64068],"geometry":{"type":"Point","coordinates":[-65.213612,-54.64068]}},{"type":"Feature","properties":{"scalerank":5,"featurecla":"cape","name":"Cabo Tres Puntas","comment":null,"name_alt":null,"lat_y":-47.237629,"long_x":-65.774707,"region":"South America","subregion":null,"min_zoom":6},"bbox":[-65.744398,-47.328779,-65.744398,-47.328779],"geometry":{"type":"Point","coordinates":[-65.744398,-47.328779]}},{"type":"Feature","properties":{"scalerank":5,"featurecla":"cape","name":"Cap Saint André","comment":null,"name_alt":null,"lat_y":-16.174457,"long_x":44.467405,"region":"Africa","subregion":null,"min_zoom":6},"bbox":[44.467296,-16.174493,44.467296,-16.174493],"geometry":{"type":"Point","coordinates":[44.467296,-16.174493]}},{"type":"Feature","properties":{"scalerank":5,"featurecla":"cape","name":"Cape St. Lucia","comment":null,"name_alt":null,"lat_y":-28.552694,"long_x":32.367221,"region":"Africa","subregion":null,"min_zoom":6},"bbox":[32.36732,-28.552667,32.36732,-28.552667],"geometry":{"type":"Point","coordinates":[32.36732,-28.552667]}},{"type":"Feature","properties":{"scalerank":5,"featurecla":"cape","name":"Cape St. Francis","comment":null,"name_alt":null,"lat_y":-34.171766,"long_x":24.817688,"region":"Africa","subregion":null,"min_zoom":6},"bbox":[24.841436,-34.18861,24.841436,-34.18861],"geometry":{"type":"Point","coordinates":[24.841436,-34.18861]}},{"type":"Feature","properties":{"scalerank":5,"featurecla":"island","name":"Minamitori-shima","comment":null,"name_alt":"Marcus I.","lat_y":24.319813,"long_x":153.958899,"region":"Seven seas (open ocean)","subregion":"North Pacific Ocean","min_zoom":6},"bbox":[153.958873,24.31977,153.958873,24.31977],"geometry":{"type":"Point","coordinates":[153.958873,24.31977]}},{"type":"Feature","properties":{"scalerank":5,"featurecla":"island","name":"Is. Martin Vaz","comment":null,"name_alt":null,"lat_y":-20.559422,"long_x":-29.338439,"region":"Seven seas (open ocean)","subregion":"Southern Atlantic Ocean","min_zoom":6},"bbox":[-29.338429,-20.559503,-29.338429,-20.559503],"geometry":{"type":"Point","coordinates":[-29.338429,-20.559503]}},{"type":"Feature","properties":{"scalerank":5,"featurecla":"island","name":"Rockall","comment":null,"name_alt":null,"lat_y":58.163524,"long_x":-12.408715,"region":"Seven seas (open ocean)","subregion":"North Atlantic Ocean","min_zoom":6},"bbox":[-12.408742,58.163398,-12.408742,58.163398],"geometry":{"type":"Point","coordinates":[-12.408742,58.163398]}},{"type":"Feature","properties":{"scalerank":5,"featurecla":"island","name":"I. de Cozumel","comment":null,"name_alt":null,"lat_y":20.444687,"long_x":-86.880555,"region":"North America","subregion":null,"min_zoom":6},"bbox":[-86.880605,20.444709,-86.880605,20.444709],"geometry":{"type":"Point","coordinates":[-86.880605,20.444709]}},{"type":"Feature","properties":{"scalerank":5,"featurecla":"island","name":"Bermuda Islands","comment":null,"name_alt":null,"lat_y":32.317339,"long_x":-64.742895,"region":"Seven seas (open ocean)","subregion":"North Atlantic Ocean","min_zoom":6},"bbox":[-64.742909,32.317267,-64.742909,32.317267],"geometry":{"type":"Point","coordinates":[-64.742909,32.317267]}}],"bbox":[-173.976734992573,-75.5918514953184,179.198374870709,83.6262881531191]}
